<?xml version="1.0" encoding="UTF-8"?>
<wx_station_index>
        <credit>NOAA's National Weather Service</credit>
        <credit_URL>https://weather.gov/</credit_URL>
        <image>
                <url>https://weather.gov/images/xml_logo.gif</url>
                <title>NOAA's National Weather Service</title>
                <link>https://www.weather.gov</link>
        </image>
        <suggested_pickup>08:00 EST</suggested_pickup>
        <suggested_pickup_period>1140</suggested_pickup_period>
	<station>
		<station_id>CWAV</station_id>
		<state>AB</state>
            	<station_name>Sundre</station_name>
		<latitude>51.76667</latitude>
		<longitude>-114.68333</longitude>
            	<html_url>https://w1.weather.gov/data/obhistory/CWAV.html</html_url>
            	<rss_url>https://weather.gov/xml/current_obs/CWAV.rss</rss_url>
            	<xml_url>https://weather.gov/xml/current_obs/CWAV.xml</xml_url>
	</station>

	<station>
		<station_id>CWBO</station_id>
		<state>AB</state>
            	<station_name>Brooks Automatic Weather Reporting System</station_name>
		<latitude>50.55</latitude>
		<longitude>-111.85</longitude>
            	<html_url>https://w1.weather.gov/data/obhistory/CWBO.html</html_url>
            	<rss_url>https://weather.gov/xml/current_obs/CWBO.rss</rss_url>
            	<xml_url>https://weather.gov/xml/current_obs/CWBO.xml</xml_url>
	</station>

	<station>
		<station_id>CWDK</station_id>
		<state>AB</state>
            	<station_name>Claresholm Automatic Weather Reporting System</station_name>
		<latitude>50.01667</latitude>
		<longitude>-113.63333</longitude>
            	<html_url>https://w1.weather.gov/data/obhistory/CWDK.html</html_url>
            	<rss_url>https://weather.gov/xml/current_obs/CWDK.rss</rss_url>
            	<xml_url>https://weather.gov/xml/current_obs/CWDK.xml</xml_url>
	</station>

	<station>
		<station_id>CWDZ</station_id>
		<state>AB</state>
            	<station_name>Drumheller East</station_name>
		<latitude>51.44504</latitude>
		<longitude>-112.67654</longitude>
            	<html_url>https://w1.weather.gov/data/obhistory/CWDZ.html</html_url>
            	<rss_url>https://weather.gov/xml/current_obs/CWDZ.rss</rss_url>
            	<xml_url>https://weather.gov/xml/current_obs/CWDZ.xml</xml_url>
	</station>

	<station>
		<station_id>CWFJ</station_id>
		<state>AB</state>
            	<station_name>Cardston Automated Reporting Station</station_name>
		<latitude>49.2</latitude>
		<longitude>-113.28333</longitude>
            	<html_url>https://w1.weather.gov/data/obhistory/CWFJ.html</html_url>
            	<rss_url>https://weather.gov/xml/current_obs/CWFJ.rss</rss_url>
            	<xml_url>https://weather.gov/xml/current_obs/CWFJ.xml</xml_url>
	</station>

	<station>
		<station_id>CWGY</station_id>
		<state>AB</state>
            	<station_name>Esther 1</station_name>
		<latitude>51.66667</latitude>
		<longitude>-110.2</longitude>
            	<html_url>https://w1.weather.gov/data/obhistory/CWGY.html</html_url>
            	<rss_url>https://weather.gov/xml/current_obs/CWGY.rss</rss_url>
            	<xml_url>https://weather.gov/xml/current_obs/CWGY.xml</xml_url>
	</station>

	<station>
		<station_id>CWHI</station_id>
		<state>AB</state>
            	<station_name>Three Hills</station_name>
		<latitude>51.7</latitude>
		<longitude>-113.21667</longitude>
            	<html_url>https://w1.weather.gov/data/obhistory/CWHI.html</html_url>
            	<rss_url>https://weather.gov/xml/current_obs/CWHI.rss</rss_url>
            	<xml_url>https://weather.gov/xml/current_obs/CWHI.xml</xml_url>
	</station>

	<station>
		<station_id>CWOE</station_id>
		<state>AB</state>
            	<station_name>Onefour Automatic Weather Reporting System</station_name>
		<latitude>49.11667</latitude>
		<longitude>-110.46667</longitude>
            	<html_url>https://w1.weather.gov/data/obhistory/CWOE.html</html_url>
            	<rss_url>https://weather.gov/xml/current_obs/CWOE.rss</rss_url>
            	<xml_url>https://weather.gov/xml/current_obs/CWOE.xml</xml_url>
	</station>

	<station>
		<station_id>CWRT</station_id>
		<state>AB</state>
            	<station_name>Crowsnest</station_name>
		<latitude>49.63333</latitude>
		<longitude>-114.48333</longitude>
            	<html_url>https://w1.weather.gov/data/obhistory/CWRT.html</html_url>
            	<rss_url>https://weather.gov/xml/current_obs/CWRT.rss</rss_url>
            	<xml_url>https://weather.gov/xml/current_obs/CWRT.xml</xml_url>
	</station>

	<station>
		<station_id>CWRY</station_id>
		<state>AB</state>
            	<station_name>Milk River</station_name>
		<latitude>49.13333</latitude>
		<longitude>-112.05</longitude>
            	<html_url>https://w1.weather.gov/data/obhistory/CWRY.html</html_url>
            	<rss_url>https://weather.gov/xml/current_obs/CWRY.rss</rss_url>
            	<xml_url>https://weather.gov/xml/current_obs/CWRY.xml</xml_url>
	</station>

	<station>
		<station_id>CWXA</station_id>
		<state>AB</state>
            	<station_name>Bow Valley</station_name>
		<latitude>51.08333</latitude>
		<longitude>-115.06667</longitude>
            	<html_url>https://w1.weather.gov/data/obhistory/CWXA.html</html_url>
            	<rss_url>https://weather.gov/xml/current_obs/CWXA.rss</rss_url>
            	<xml_url>https://weather.gov/xml/current_obs/CWXA.xml</xml_url>
	</station>

	<station>
		<station_id>CWXL</station_id>
		<state>AB</state>
            	<station_name>Bow Island</station_name>
		<latitude>49.63333</latitude>
		<longitude>-111.45</longitude>
            	<html_url>https://w1.weather.gov/data/obhistory/CWXL.html</html_url>
            	<rss_url>https://weather.gov/xml/current_obs/CWXL.rss</rss_url>
            	<xml_url>https://weather.gov/xml/current_obs/CWXL.xml</xml_url>
	</station>

	<station>
		<station_id>CWZG</station_id>
		<state>AB</state>
            	<station_name>Banff Marine Aviation Reporting Station</station_name>
		<latitude>51.2</latitude>
		<longitude>-115.55</longitude>
            	<html_url>https://w1.weather.gov/data/obhistory/CWZG.html</html_url>
            	<rss_url>https://weather.gov/xml/current_obs/CWZG.rss</rss_url>
            	<xml_url>https://weather.gov/xml/current_obs/CWZG.xml</xml_url>
	</station>

	<station>
		<station_id>CYYC</station_id>
		<state>AB</state>
            	<station_name>Calgary International Airport</station_name>
		<latitude>51.11667</latitude>
		<longitude>-114.01667</longitude>
            	<html_url>https://w1.weather.gov/data/obhistory/CYYC.html</html_url>
            	<rss_url>https://weather.gov/xml/current_obs/CYYC.rss</rss_url>
            	<xml_url>https://weather.gov/xml/current_obs/CYYC.xml</xml_url>
	</station>

	<station>
		<station_id>CXAF</station_id>
		<state>AB</state>
            	<station_name>ABEE AGDM</station_name>
		<latitude>54.28</latitude>
		<longitude>-112.97</longitude>
            	<html_url>https://w1.weather.gov/data/obhistory/CXAF.html</html_url>
            	<rss_url>https://weather.gov/xml/current_obs/CXAF.rss</rss_url>
            	<xml_url>https://weather.gov/xml/current_obs/CXAF.xml</xml_url>
	</station>

	<station>
		<station_id>CXAG</station_id>
		<state>AB</state>
            	<station_name>ANDREW AGDM</station_name>
		<latitude>53.92</latitude>
		<longitude>-112.28</longitude>
            	<html_url>https://w1.weather.gov/data/obhistory/CXAG.html</html_url>
            	<rss_url>https://weather.gov/xml/current_obs/CXAG.rss</rss_url>
            	<xml_url>https://weather.gov/xml/current_obs/CXAG.xml</xml_url>
	</station>

	<station>
		<station_id>CXAJ</station_id>
		<state>AB</state>
            	<station_name>ATMORE AGDM</station_name>
		<latitude>54.78</latitude>
		<longitude>-112.83</longitude>
            	<html_url>https://w1.weather.gov/data/obhistory/CXAJ.html</html_url>
            	<rss_url>https://weather.gov/xml/current_obs/CXAJ.rss</rss_url>
            	<xml_url>https://weather.gov/xml/current_obs/CXAJ.xml</xml_url>
	</station>

	<station>
		<station_id>CXBW</station_id>
		<state>AB</state>
            	<station_name>Barnwell Agdm</station_name>
		<latitude>49.80077</latitude>
		<longitude>-112.30248</longitude>
            	<html_url>https://w1.weather.gov/data/obhistory/CXBW.html</html_url>
            	<rss_url>https://weather.gov/xml/current_obs/CXBW.rss</rss_url>
            	<xml_url>https://weather.gov/xml/current_obs/CXBW.xml</xml_url>
	</station>

	<station>
		<station_id>CXBA</station_id>
		<state>AB</state>
            	<station_name>BODO AGDM</station_name>
		<latitude>52.12</latitude>
		<longitude>-110.1</longitude>
            	<html_url>https://w1.weather.gov/data/obhistory/CXBA.html</html_url>
            	<rss_url>https://weather.gov/xml/current_obs/CXBA.rss</rss_url>
            	<xml_url>https://weather.gov/xml/current_obs/CXBA.xml</xml_url>
	</station>

	<station>
		<station_id>CXBR</station_id>
		<state>AB</state>
            	<station_name>BROCKET AGDM</station_name>
		<latitude>49.62</latitude>
		<longitude>-113.82</longitude>
            	<html_url>https://w1.weather.gov/data/obhistory/CXBR.html</html_url>
            	<rss_url>https://weather.gov/xml/current_obs/CXBR.rss</rss_url>
            	<xml_url>https://weather.gov/xml/current_obs/CXBR.xml</xml_url>
	</station>

	<station>
		<station_id>CXCP</station_id>
		<state>AB</state>
            	<station_name>CHAMPION AGDM</station_name>
		<latitude>50.28</latitude>
		<longitude>-113.35</longitude>
            	<html_url>https://w1.weather.gov/data/obhistory/CXCP.html</html_url>
            	<rss_url>https://weather.gov/xml/current_obs/CXCP.rss</rss_url>
            	<xml_url>https://weather.gov/xml/current_obs/CXCP.xml</xml_url>
	</station>

	<station>
		<station_id>CXCS</station_id>
		<state>AB</state>
            	<station_name>CONSORT AGDM</station_name>
		<latitude>51.93</latitude>
		<longitude>-110.72</longitude>
            	<html_url>https://w1.weather.gov/data/obhistory/CXCS.html</html_url>
            	<rss_url>https://weather.gov/xml/current_obs/CXCS.rss</rss_url>
            	<xml_url>https://weather.gov/xml/current_obs/CXCS.xml</xml_url>
	</station>

	<station>
		<station_id>CWCT</station_id>
		<state>AB</state>
            	<station_name>Coronation Automated Reporting Station</station_name>
		<latitude>52.06667</latitude>
		<longitude>-111.46667</longitude>
            	<html_url>https://w1.weather.gov/data/obhistory/CWCT.html</html_url>
            	<rss_url>https://weather.gov/xml/current_obs/CWCT.rss</rss_url>
            	<xml_url>https://weather.gov/xml/current_obs/CWCT.xml</xml_url>
	</station>

	<station>
		<station_id>CXDB</station_id>
		<state>AB</state>
            	<station_name>DEL BONITA AGDM</station_name>
		<latitude>49.05</latitude>
		<longitude>-112.82</longitude>
            	<html_url>https://w1.weather.gov/data/obhistory/CXDB.html</html_url>
            	<rss_url>https://weather.gov/xml/current_obs/CXDB.rss</rss_url>
            	<xml_url>https://weather.gov/xml/current_obs/CXDB.xml</xml_url>
	</station>

	<station>
		<station_id>CYEG</station_id>
		<state>AB</state>
            	<station_name>Edmonton International Airport</station_name>
		<latitude>53.3</latitude>
		<longitude>-113.58333</longitude>
            	<html_url>https://w1.weather.gov/data/obhistory/CYEG.html</html_url>
            	<rss_url>https://weather.gov/xml/current_obs/CYEG.rss</rss_url>
            	<xml_url>https://weather.gov/xml/current_obs/CYEG.xml</xml_url>
	</station>

	<station>
		<station_id>CXEG</station_id>
		<state>AB</state>
            	<station_name>Edmonton International CS , Alta.</station_name>
		<latitude>53.3</latitude>
		<longitude>-113.6</longitude>
            	<html_url>https://w1.weather.gov/data/obhistory/CXEG.html</html_url>
            	<rss_url>https://weather.gov/xml/current_obs/CXEG.rss</rss_url>
            	<xml_url>https://weather.gov/xml/current_obs/CXEG.xml</xml_url>
	</station>

	<station>
		<station_id>CXEC</station_id>
		<state>AB</state>
            	<station_name>Edmonton Municipal CR10 , Alta.</station_name>
		<latitude>53.56667</latitude>
		<longitude>-113.51667</longitude>
            	<html_url>https://w1.weather.gov/data/obhistory/CXEC.html</html_url>
            	<rss_url>https://weather.gov/xml/current_obs/CXEC.rss</rss_url>
            	<xml_url>https://weather.gov/xml/current_obs/CXEC.xml</xml_url>
	</station>

	<station>
		<station_id>CZZJ</station_id>
		<state>AB</state>
            	<station_name>EDSON CR10</station_name>
		<latitude>53.58</latitude>
		<longitude>-116.47</longitude>
            	<html_url>https://w1.weather.gov/data/obhistory/CZZJ.html</html_url>
            	<rss_url>https://weather.gov/xml/current_obs/CZZJ.rss</rss_url>
            	<xml_url>https://weather.gov/xml/current_obs/CZZJ.xml</xml_url>
	</station>

	<station>
		<station_id>CXFR</station_id>
		<state>AB</state>
            	<station_name>FAIRVIEW AGDM</station_name>
		<latitude>56.08</latitude>
		<longitude>-118.43</longitude>
            	<html_url>https://w1.weather.gov/data/obhistory/CXFR.html</html_url>
            	<rss_url>https://weather.gov/xml/current_obs/CXFR.rss</rss_url>
            	<xml_url>https://weather.gov/xml/current_obs/CXFR.xml</xml_url>
	</station>

	<station>
		<station_id>CXMM</station_id>
		<state>AB</state>
            	<station_name>Fort McMurray CS, Alta.</station_name>
		<latitude>56.65</latitude>
		<longitude>-111.21667</longitude>
            	<html_url>https://w1.weather.gov/data/obhistory/CXMM.html</html_url>
            	<rss_url>https://weather.gov/xml/current_obs/CXMM.rss</rss_url>
            	<xml_url>https://weather.gov/xml/current_obs/CXMM.xml</xml_url>
	</station>

	<station>
		<station_id>CXHP</station_id>
		<state>AB</state>
            	<station_name>HIGH PRAIRIE AGDM</station_name>
		<latitude>55.4</latitude>
		<longitude>-116.48</longitude>
            	<html_url>https://w1.weather.gov/data/obhistory/CXHP.html</html_url>
            	<rss_url>https://weather.gov/xml/current_obs/CXHP.rss</rss_url>
            	<xml_url>https://weather.gov/xml/current_obs/CXHP.xml</xml_url>
	</station>

	<station>
		<station_id>CXHD</station_id>
		<state>AB</state>
            	<station_name>HOLDEN AGDM</station_name>
		<latitude>53.18</latitude>
		<longitude>-112.25</longitude>
            	<html_url>https://w1.weather.gov/data/obhistory/CXHD.html</html_url>
            	<rss_url>https://weather.gov/xml/current_obs/CXHD.rss</rss_url>
            	<xml_url>https://weather.gov/xml/current_obs/CXHD.xml</xml_url>
	</station>

	<station>
		<station_id>CXHR</station_id>
		<state>AB</state>
            	<station_name>Hussar Agdm</station_name>
		<latitude>51.19106</latitude>
		<longitude>-112.50265</longitude>
            	<html_url>https://w1.weather.gov/data/obhistory/CXHR.html</html_url>
            	<rss_url>https://weather.gov/xml/current_obs/CXHR.rss</rss_url>
            	<xml_url>https://weather.gov/xml/current_obs/CXHR.xml</xml_url>
	</station>

	<station>
		<station_id>CWJW</station_id>
		<state>AB</state>
            	<station_name>Jasper Warden Automated Reporting Station</station_name>
		<latitude>52.93333</latitude>
		<longitude>-118.31667</longitude>
            	<html_url>https://w1.weather.gov/data/obhistory/CWJW.html</html_url>
            	<rss_url>https://weather.gov/xml/current_obs/CWJW.rss</rss_url>
            	<xml_url>https://weather.gov/xml/current_obs/CWJW.xml</xml_url>
	</station>

	<station>
		<station_id>CXKM</station_id>
		<state>AB</state>
            	<station_name>KILLAM AGDM</station_name>
		<latitude>52.82175</latitude>
		<longitude>-111.85796</longitude>
            	<html_url>https://w1.weather.gov/data/obhistory/CXKM.html</html_url>
            	<rss_url>https://weather.gov/xml/current_obs/CXKM.rss</rss_url>
            	<xml_url>https://weather.gov/xml/current_obs/CXKM.xml</xml_url>
	</station>

	<station>
		<station_id>CWLB</station_id>
		<state>AB</state>
            	<station_name>Lac La Biche</station_name>
		<latitude>54.76898</latitude>
		<longitude>-112.02364</longitude>
            	<html_url>https://w1.weather.gov/data/obhistory/CWLB.html</html_url>
            	<rss_url>https://weather.gov/xml/current_obs/CWLB.rss</rss_url>
            	<xml_url>https://weather.gov/xml/current_obs/CWLB.xml</xml_url>
	</station>

	<station>
		<station_id>CXMG</station_id>
		<state>AB</state>
            	<station_name>MANNING AGDM</station_name>
		<latitude>56.97</latitude>
		<longitude>-117.45</longitude>
            	<html_url>https://w1.weather.gov/data/obhistory/CXMG.html</html_url>
            	<rss_url>https://weather.gov/xml/current_obs/CXMG.rss</rss_url>
            	<xml_url>https://weather.gov/xml/current_obs/CXMG.xml</xml_url>
	</station>

	<station>
		<station_id>CZMU</station_id>
		<state>AB</state>
            	<station_name>MUNDARE AGDM</station_name>
		<latitude>53.57</latitude>
		<longitude>-112.3</longitude>
            	<html_url>https://w1.weather.gov/data/obhistory/CZMU.html</html_url>
            	<rss_url>https://weather.gov/xml/current_obs/CZMU.rss</rss_url>
            	<xml_url>https://weather.gov/xml/current_obs/CZMU.xml</xml_url>
	</station>

	<station>
		<station_id>CXOL</station_id>
		<state>AB</state>
            	<station_name>OLDS AGDM</station_name>
		<latitude>51.77</latitude>
		<longitude>-114.08</longitude>
            	<html_url>https://w1.weather.gov/data/obhistory/CXOL.html</html_url>
            	<rss_url>https://weather.gov/xml/current_obs/CXOL.rss</rss_url>
            	<xml_url>https://weather.gov/xml/current_obs/CXOL.xml</xml_url>
	</station>

	<station>
		<station_id>CZOL</station_id>
		<state>AB</state>
            	<station_name>OLIVER AGDM</station_name>
		<latitude>53.65</latitude>
		<longitude>-113.35</longitude>
            	<html_url>https://w1.weather.gov/data/obhistory/CZOL.html</html_url>
            	<rss_url>https://weather.gov/xml/current_obs/CZOL.rss</rss_url>
            	<xml_url>https://weather.gov/xml/current_obs/CZOL.xml</xml_url>
	</station>

	<station>
		<station_id>CXOY</station_id>
		<state>AB</state>
            	<station_name>OYEN AGDM</station_name>
		<latitude>51.38</latitude>
		<longitude>-110.35</longitude>
            	<html_url>https://w1.weather.gov/data/obhistory/CXOY.html</html_url>
            	<rss_url>https://weather.gov/xml/current_obs/CXOY.rss</rss_url>
            	<xml_url>https://weather.gov/xml/current_obs/CXOY.xml</xml_url>
	</station>

	<station>
		<station_id>CXPA</station_id>
		<state>AB</state>
            	<station_name>PEORIA AGDM</station_name>
		<latitude>55.62</latitude>
		<longitude>-118.3</longitude>
            	<html_url>https://w1.weather.gov/data/obhistory/CXPA.html</html_url>
            	<rss_url>https://weather.gov/xml/current_obs/CXPA.rss</rss_url>
            	<xml_url>https://weather.gov/xml/current_obs/CXPA.xml</xml_url>
	</station>

	<station>
		<station_id>CXPL</station_id>
		<state>AB</state>
            	<station_name>POLLOCKVILLE AGDM</station_name>
		<latitude>51.13</latitude>
		<longitude>-111.7</longitude>
            	<html_url>https://w1.weather.gov/data/obhistory/CXPL.html</html_url>
            	<rss_url>https://weather.gov/xml/current_obs/CXPL.rss</rss_url>
            	<xml_url>https://weather.gov/xml/current_obs/CXPL.xml</xml_url>
	</station>

	<station>
		<station_id>CZPS</station_id>
		<state>AB</state>
            	<station_name>PRENTISS ALBERTA</station_name>
		<latitude>52.43</latitude>
		<longitude>-113.6</longitude>
            	<html_url>https://w1.weather.gov/data/obhistory/CZPS.html</html_url>
            	<rss_url>https://weather.gov/xml/current_obs/CZPS.rss</rss_url>
            	<xml_url>https://weather.gov/xml/current_obs/CZPS.xml</xml_url>
	</station>

	<station>
		<station_id>CXRL</station_id>
		<state>AB</state>
            	<station_name>RICH LAKE AGDM</station_name>
		<latitude>54.5</latitude>
		<longitude>-111.7</longitude>
            	<html_url>https://w1.weather.gov/data/obhistory/CXRL.html</html_url>
            	<rss_url>https://weather.gov/xml/current_obs/CXRL.rss</rss_url>
            	<xml_url>https://weather.gov/xml/current_obs/CXRL.xml</xml_url>
	</station>

	<station>
		<station_id>CWRM</station_id>
		<state>AB</state>
            	<station_name>Rocky House Marine Aviation Reporting Station</station_name>
		<latitude>52.43333</latitude>
		<longitude>-114.93333</longitude>
            	<html_url>https://w1.weather.gov/data/obhistory/CWRM.html</html_url>
            	<rss_url>https://weather.gov/xml/current_obs/CWRM.rss</rss_url>
            	<xml_url>https://weather.gov/xml/current_obs/CWRM.xml</xml_url>
	</station>

	<station>
		<station_id>CXSC</station_id>
		<state>AB</state>
            	<station_name>SCHULER AGDM</station_name>
		<latitude>50.3</latitude>
		<longitude>-110.08</longitude>
            	<html_url>https://w1.weather.gov/data/obhistory/CXSC.html</html_url>
            	<rss_url>https://weather.gov/xml/current_obs/CXSC.rss</rss_url>
            	<xml_url>https://weather.gov/xml/current_obs/CXSC.xml</xml_url>
	</station>

	<station>
		<station_id>CXSL</station_id>
		<state>AB</state>
            	<station_name>SMOKY LAKE AGDM</station_name>
		<latitude>54.28</latitude>
		<longitude>-112.5</longitude>
            	<html_url>https://w1.weather.gov/data/obhistory/CXSL.html</html_url>
            	<rss_url>https://weather.gov/xml/current_obs/CXSL.rss</rss_url>
            	<xml_url>https://weather.gov/xml/current_obs/CXSL.xml</xml_url>
	</station>

	<station>
		<station_id>CXAK</station_id>
		<state>AB</state>
            	<station_name>STETTLER AGDM</station_name>
		<latitude>52.35</latitude>
		<longitude>-112.6</longitude>
            	<html_url>https://w1.weather.gov/data/obhistory/CXAK.html</html_url>
            	<rss_url>https://weather.gov/xml/current_obs/CXAK.rss</rss_url>
            	<xml_url>https://weather.gov/xml/current_obs/CXAK.xml</xml_url>
	</station>

	<station>
		<station_id>CXTH</station_id>
		<state>AB</state>
            	<station_name>TWO HILLS AGDM</station_name>
		<latitude>53.63</latitude>
		<longitude>-111.68</longitude>
            	<html_url>https://w1.weather.gov/data/obhistory/CXTH.html</html_url>
            	<rss_url>https://weather.gov/xml/current_obs/CXTH.rss</rss_url>
            	<xml_url>https://weather.gov/xml/current_obs/CXTH.xml</xml_url>
	</station>

	<station>
		<station_id>CXVW</station_id>
		<state>AB</state>
            	<station_name>VALLEYVIEW AGDM</station_name>
		<latitude>55.1</latitude>
		<longitude>-117.2</longitude>
            	<html_url>https://w1.weather.gov/data/obhistory/CXVW.html</html_url>
            	<rss_url>https://weather.gov/xml/current_obs/CXVW.rss</rss_url>
            	<xml_url>https://weather.gov/xml/current_obs/CXVW.xml</xml_url>
	</station>

	<station>
		<station_id>CWVI</station_id>
		<state>AB</state>
            	<station_name>Vegreville Automatic Weather Reporting System</station_name>
		<latitude>53.61667</latitude>
		<longitude>-112.03333</longitude>
            	<html_url>https://w1.weather.gov/data/obhistory/CWVI.html</html_url>
            	<rss_url>https://weather.gov/xml/current_obs/CWVI.rss</rss_url>
            	<xml_url>https://weather.gov/xml/current_obs/CWVI.xml</xml_url>
	</station>

	<station>
		<station_id>CXVM</station_id>
		<state>AB</state>
            	<station_name>VERMILION AGDM</station_name>
		<latitude>53.35</latitude>
		<longitude>-110.88</longitude>
            	<html_url>https://w1.weather.gov/data/obhistory/CXVM.html</html_url>
            	<rss_url>https://weather.gov/xml/current_obs/CXVM.rss</rss_url>
            	<xml_url>https://weather.gov/xml/current_obs/CXVM.xml</xml_url>
	</station>

	<station>
		<station_id>CWGM</station_id>
		<state>AB</state>
            	<station_name>Waterton Park Gate</station_name>
		<latitude>49.13333</latitude>
		<longitude>-113.8</longitude>
            	<html_url>https://w1.weather.gov/data/obhistory/CWGM.html</html_url>
            	<rss_url>https://weather.gov/xml/current_obs/CWGM.rss</rss_url>
            	<xml_url>https://weather.gov/xml/current_obs/CWGM.xml</xml_url>
	</station>

	<station>
		<station_id>CXWM</station_id>
		<state>AB</state>
            	<station_name>WRENTHAM AGDM</station_name>
		<latitude>49.5</latitude>
		<longitude>-112.12</longitude>
            	<html_url>https://w1.weather.gov/data/obhistory/CXWM.html</html_url>
            	<rss_url>https://weather.gov/xml/current_obs/CXWM.rss</rss_url>
            	<xml_url>https://weather.gov/xml/current_obs/CXWM.xml</xml_url>
	</station>

	<station>
		<station_id>CPBT</station_id>
		<state>AB</state>
            	<station_name>Blood Tribe</station_name>
		<latitude>49.5667</latitude>
		<longitude>-113.05</longitude>
            	<html_url>https://w1.weather.gov/data/obhistory/CPBT.html</html_url>
            	<rss_url>https://weather.gov/xml/current_obs/CPBT.rss</rss_url>
            	<xml_url>https://weather.gov/xml/current_obs/CPBT.xml</xml_url>
	</station>

	<station>
		<station_id>CPEH</station_id>
		<state>AB</state>
            	<station_name>Enchant</station_name>
		<latitude>50.1833</latitude>
		<longitude>-112.4333</longitude>
            	<html_url>https://w1.weather.gov/data/obhistory/CPEH.html</html_url>
            	<rss_url>https://weather.gov/xml/current_obs/CPEH.rss</rss_url>
            	<xml_url>https://weather.gov/xml/current_obs/CPEH.xml</xml_url>
	</station>

	<station>
		<station_id>CPFI</station_id>
		<state>AB</state>
            	<station_name>Fincastle</station_name>
		<latitude>49.8</latitude>
		<longitude>-112.0333</longitude>
            	<html_url>https://w1.weather.gov/data/obhistory/CPFI.html</html_url>
            	<rss_url>https://weather.gov/xml/current_obs/CPFI.rss</rss_url>
            	<xml_url>https://weather.gov/xml/current_obs/CPFI.xml</xml_url>
	</station>

	<station>
		<station_id>CPIR</station_id>
		<state>AB</state>
            	<station_name>Iron Springs</station_name>
		<latitude>49.9</latitude>
		<longitude>-112.7333</longitude>
            	<html_url>https://w1.weather.gov/data/obhistory/CPIR.html</html_url>
            	<rss_url>https://weather.gov/xml/current_obs/CPIR.rss</rss_url>
            	<xml_url>https://weather.gov/xml/current_obs/CPIR.xml</xml_url>
	</station>

	<station>
		<station_id>CPRY</station_id>
		<state>AB</state>
            	<station_name>Raymond</station_name>
		<latitude>49.4833</latitude>
		<longitude>-112.6833</longitude>
            	<html_url>https://w1.weather.gov/data/obhistory/CPRY.html</html_url>
            	<rss_url>https://weather.gov/xml/current_obs/CPRY.rss</rss_url>
            	<xml_url>https://weather.gov/xml/current_obs/CPRY.xml</xml_url>
	</station>

	<station>
		<station_id>CPST</station_id>
		<state>AB</state>
            	<station_name>Strathmore Agdm</station_name>
		<latitude>51.03869</latitude>
		<longitude>-113.28984</longitude>
            	<html_url>https://w1.weather.gov/data/obhistory/CPST.html</html_url>
            	<rss_url>https://weather.gov/xml/current_obs/CPST.rss</rss_url>
            	<xml_url>https://weather.gov/xml/current_obs/CPST.xml</xml_url>
	</station>

	<station>
		<station_id>CPSV</station_id>
		<state>AB</state>
            	<station_name>Seven Persons</station_name>
		<latitude>49.9167</latitude>
		<longitude>-110.9167</longitude>
            	<html_url>https://w1.weather.gov/data/obhistory/CPSV.html</html_url>
            	<rss_url>https://weather.gov/xml/current_obs/CPSV.rss</rss_url>
            	<xml_url>https://weather.gov/xml/current_obs/CPSV.xml</xml_url>
	</station>

	<station>
		<station_id>CPRO</station_id>
		<state>AB</state>
            	<station_name>Rosemary IMCIN</station_name>
		<latitude>50.8365</latitude>
		<longitude>-112.0574</longitude>
            	<html_url>https://w1.weather.gov/data/obhistory/CPRO.html</html_url>
            	<rss_url>https://weather.gov/xml/current_obs/CPRO.rss</rss_url>
            	<xml_url>https://weather.gov/xml/current_obs/CPRO.xml</xml_url>
	</station>

	<station>
		<station_id>MMAS</station_id>
		<state>AGS</state>
            	<station_name>Aguascalientes, Ags.</station_name>
		<latitude>21.70155</latitude>
		<longitude>-102.31756</longitude>
            	<html_url>https://w1.weather.gov/data/obhistory/MMAS.html</html_url>
            	<rss_url>https://weather.gov/xml/current_obs/MMAS.rss</rss_url>
            	<xml_url>https://weather.gov/xml/current_obs/MMAS.xml</xml_url>
	</station>

	<station>
		<station_id>PADK</station_id>
		<state>AK</state>
            	<station_name>Adak Island, Adak Airport</station_name>
		<latitude>51.87778</latitude>
		<longitude>-176.64583</longitude>
            	<html_url>https://w1.weather.gov/data/obhistory/PADK.html</html_url>
            	<rss_url>https://weather.gov/xml/current_obs/PADK.rss</rss_url>
            	<xml_url>https://weather.gov/xml/current_obs/PADK.xml</xml_url>
	</station>

	<station>
		<station_id>PADQ</station_id>
		<state>AK</state>
            	<station_name>Kodiak, Kodiak Airport</station_name>
		<latitude>57.75</latitude>
		<longitude>-152.5</longitude>
            	<html_url>https://w1.weather.gov/data/obhistory/PADQ.html</html_url>
            	<rss_url>https://weather.gov/xml/current_obs/PADQ.rss</rss_url>
            	<xml_url>https://weather.gov/xml/current_obs/PADQ.xml</xml_url>
	</station>

	<station>
		<station_id>PAFM</station_id>
		<state>AK</state>
            	<station_name>Ambler, Ambler Airport</station_name>
		<latitude>67.1</latitude>
		<longitude>-157.85</longitude>
            	<html_url>https://w1.weather.gov/data/obhistory/PAFM.html</html_url>
            	<rss_url>https://weather.gov/xml/current_obs/PAFM.rss</rss_url>
            	<xml_url>https://weather.gov/xml/current_obs/PAFM.xml</xml_url>
	</station>

	<station>
		<station_id>PAGN</station_id>
		<state>AK</state>
            	<station_name>Angoon</station_name>
		<latitude>57.5</latitude>
		<longitude>-134.58333</longitude>
            	<html_url>https://w1.weather.gov/data/obhistory/PAGN.html</html_url>
            	<rss_url>https://weather.gov/xml/current_obs/PAGN.rss</rss_url>
            	<xml_url>https://weather.gov/xml/current_obs/PAGN.xml</xml_url>
	</station>

	<station>
		<station_id>PAWI</station_id>
		<state>AK</state>
            	<station_name>Wainwright, Wainwright Airport</station_name>
		<latitude>70.63333</latitude>
		<longitude>-159.85</longitude>
            	<html_url>https://w1.weather.gov/data/obhistory/PAWI.html</html_url>
            	<rss_url>https://weather.gov/xml/current_obs/PAWI.rss</rss_url>
            	<xml_url>https://weather.gov/xml/current_obs/PAWI.xml</xml_url>
	</station>

	<station>
		<station_id>PAKN</station_id>
		<state>AK</state>
            	<station_name>King Salmon, King Salmon Airport</station_name>
		<latitude>58.67667</latitude>
		<longitude>-156.64917</longitude>
            	<html_url>https://w1.weather.gov/data/obhistory/PAKN.html</html_url>
            	<rss_url>https://weather.gov/xml/current_obs/PAKN.rss</rss_url>
            	<xml_url>https://weather.gov/xml/current_obs/PAKN.xml</xml_url>
	</station>

	<station>
		<station_id>PAKP</station_id>
		<state>AK</state>
            	<station_name>Anaktuvuk Pass, Anaktuvuk Pass Airport</station_name>
		<latitude>68.13361</latitude>
		<longitude>-151.74333</longitude>
            	<html_url>https://w1.weather.gov/data/obhistory/PAKP.html</html_url>
            	<rss_url>https://weather.gov/xml/current_obs/PAKP.rss</rss_url>
            	<xml_url>https://weather.gov/xml/current_obs/PAKP.xml</xml_url>
	</station>

	<station>
		<station_id>PAKW</station_id>
		<state>AK</state>
            	<station_name>Klawock - Klawock Airport</station_name>
		<latitude>55.5839</latitude>
		<longitude>-133.067</longitude>
            	<html_url>https://w1.weather.gov/data/obhistory/PAKW.html</html_url>
            	<rss_url>https://weather.gov/xml/current_obs/PAKW.rss</rss_url>
            	<xml_url>https://weather.gov/xml/current_obs/PAKW.xml</xml_url>
	</station>

	<station>
		<station_id>PANC</station_id>
		<state>AK</state>
            	<station_name>Anchorage, Ted Stevens Anchorage International Airport</station_name>
		<latitude>61.17444</latitude>
		<longitude>-149.99611</longitude>
            	<html_url>https://w1.weather.gov/data/obhistory/PANC.html</html_url>
            	<rss_url>https://weather.gov/xml/current_obs/PANC.rss</rss_url>
            	<xml_url>https://weather.gov/xml/current_obs/PANC.xml</xml_url>
	</station>

	<station>
		<station_id>PANI</station_id>
		<state>AK</state>
            	<station_name>Aniak, Aniak Airport</station_name>
		<latitude>61.58139</latitude>
		<longitude>-159.54278</longitude>
            	<html_url>https://w1.weather.gov/data/obhistory/PANI.html</html_url>
            	<rss_url>https://weather.gov/xml/current_obs/PANI.rss</rss_url>
            	<xml_url>https://weather.gov/xml/current_obs/PANI.xml</xml_url>
	</station>

	<station>
		<station_id>PANV</station_id>
		<state>AK</state>
            	<station_name>Anvik, Anvik Airport</station_name>
		<latitude>62.64833</latitude>
		<longitude>-160.18972</longitude>
            	<html_url>https://w1.weather.gov/data/obhistory/PANV.html</html_url>
            	<rss_url>https://weather.gov/xml/current_obs/PANV.rss</rss_url>
            	<xml_url>https://weather.gov/xml/current_obs/PANV.xml</xml_url>
	</station>

	<station>
		<station_id>PAPB</station_id>
		<state>AK</state>
            	<station_name>St. George, St. George Airport</station_name>
		<latitude>56.57861</latitude>
		<longitude>-169.66139</longitude>
            	<html_url>https://w1.weather.gov/data/obhistory/PAPB.html</html_url>
            	<rss_url>https://weather.gov/xml/current_obs/PAPB.rss</rss_url>
            	<xml_url>https://weather.gov/xml/current_obs/PAPB.xml</xml_url>
	</station>

	<station>
		<station_id>PABV</station_id>
		<state>AK</state>
            	<station_name>Birchwood, Birchwood Airport</station_name>
		<latitude>61.41667</latitude>
		<longitude>-149.51667</longitude>
            	<html_url>https://w1.weather.gov/data/obhistory/PABV.html</html_url>
            	<rss_url>https://weather.gov/xml/current_obs/PABV.rss</rss_url>
            	<xml_url>https://weather.gov/xml/current_obs/PABV.xml</xml_url>
	</station>

	<station>
		<station_id>PABE</station_id>
		<state>AK</state>
            	<station_name>Bethel, Bethel Airport</station_name>
		<latitude>60.77972</latitude>
		<longitude>-161.83778</longitude>
            	<html_url>https://w1.weather.gov/data/obhistory/PABE.html</html_url>
            	<rss_url>https://weather.gov/xml/current_obs/PABE.rss</rss_url>
            	<xml_url>https://weather.gov/xml/current_obs/PABE.xml</xml_url>
	</station>

	<station>
		<station_id>PABI</station_id>
		<state>AK</state>
            	<station_name>Delta Junction/Ft Greely, Allen Army Airfield</station_name>
		<latitude>64</latitude>
		<longitude>-145.73333</longitude>
            	<html_url>https://w1.weather.gov/data/obhistory/PABI.html</html_url>
            	<rss_url>https://weather.gov/xml/current_obs/PABI.rss</rss_url>
            	<xml_url>https://weather.gov/xml/current_obs/PABI.xml</xml_url>
	</station>

	<station>
		<station_id>PABR</station_id>
		<state>AK</state>
            	<station_name>Wiley Post-Will Rogers Memorial Airport</station_name>
		<latitude>71.28528</latitude>
		<longitude>-156.76583</longitude>
            	<html_url>https://w1.weather.gov/data/obhistory/PABR.html</html_url>
            	<rss_url>https://weather.gov/xml/current_obs/PABR.rss</rss_url>
            	<xml_url>https://weather.gov/xml/current_obs/PABR.xml</xml_url>
	</station>

	<station>
		<station_id>PABA</station_id>
		<state>AK</state>
            	<station_name>Barter Island, Barter Island LRRS Airport</station_name>
		<latitude>70.13389</latitude>
		<longitude>-143.57694</longitude>
            	<html_url>https://w1.weather.gov/data/obhistory/PABA.html</html_url>
            	<rss_url>https://weather.gov/xml/current_obs/PABA.rss</rss_url>
            	<xml_url>https://weather.gov/xml/current_obs/PABA.xml</xml_url>
	</station>

	<station>
		<station_id>PABT</station_id>
		<state>AK</state>
            	<station_name>Bettles, Bettles Airport</station_name>
		<latitude>66.91667</latitude>
		<longitude>-151.51667</longitude>
            	<html_url>https://w1.weather.gov/data/obhistory/PABT.html</html_url>
            	<rss_url>https://weather.gov/xml/current_obs/PABT.rss</rss_url>
            	<xml_url>https://weather.gov/xml/current_obs/PABT.xml</xml_url>
	</station>

	<station>
		<station_id>PACD</station_id>
		<state>AK</state>
            	<station_name>Cold Bay, Cold Bay Airport</station_name>
		<latitude>55.22083</latitude>
		<longitude>-162.72778</longitude>
            	<html_url>https://w1.weather.gov/data/obhistory/PACD.html</html_url>
            	<rss_url>https://weather.gov/xml/current_obs/PACD.rss</rss_url>
            	<xml_url>https://weather.gov/xml/current_obs/PACD.xml</xml_url>
	</station>

	<station>
		<station_id>PACV</station_id>
		<state>AK</state>
            	<station_name>Cordova, Merle K (Mudhole) Smith Airport</station_name>
		<latitude>60.49167</latitude>
		<longitude>-145.47778</longitude>
            	<html_url>https://w1.weather.gov/data/obhistory/PACV.html</html_url>
            	<rss_url>https://weather.gov/xml/current_obs/PACV.rss</rss_url>
            	<xml_url>https://weather.gov/xml/current_obs/PACV.xml</xml_url>
	</station>

	<station>
		<station_id>PADL</station_id>
		<state>AK</state>
            	<station_name>Dillingham, Dillingham Airport</station_name>
		<latitude>59.05</latitude>
		<longitude>-158.51667</longitude>
            	<html_url>https://w1.weather.gov/data/obhistory/PADL.html</html_url>
            	<rss_url>https://weather.gov/xml/current_obs/PADL.rss</rss_url>
            	<xml_url>https://weather.gov/xml/current_obs/PADL.xml</xml_url>
	</station>

	<station>
		<station_id>PADU</station_id>
		<state>AK</state>
            	<station_name>Unalaska, Unalaska Airport</station_name>
		<latitude>53.9</latitude>
		<longitude>-166.53333</longitude>
            	<html_url>https://w1.weather.gov/data/obhistory/PADU.html</html_url>
            	<rss_url>https://weather.gov/xml/current_obs/PADU.rss</rss_url>
            	<xml_url>https://weather.gov/xml/current_obs/PADU.xml</xml_url>
	</station>

	<station>
		<station_id>PAEG</station_id>
		<state>AK</state>
            	<station_name>Eagle, Eagle Airport</station_name>
		<latitude>64.77639</latitude>
		<longitude>-141.15083</longitude>
            	<html_url>https://w1.weather.gov/data/obhistory/PAEG.html</html_url>
            	<rss_url>https://weather.gov/xml/current_obs/PAEG.rss</rss_url>
            	<xml_url>https://weather.gov/xml/current_obs/PAEG.xml</xml_url>
	</station>

	<station>
		<station_id>PAEL</station_id>
		<state>AK</state>
            	<station_name>Elfin Cove - Elfin Cove Seaplane Base</station_name>
		<latitude>58.19467</latitude>
		<longitude>-136.34663</longitude>
            	<html_url>https://w1.weather.gov/data/obhistory/PAEL.html</html_url>
            	<rss_url>https://weather.gov/xml/current_obs/PAEL.rss</rss_url>
            	<xml_url>https://weather.gov/xml/current_obs/PAEL.xml</xml_url>
	</station>

	<station>
		<station_id>PAEN</station_id>
		<state>AK</state>
            	<station_name>Kenai, Kenai Municipal Airport</station_name>
		<latitude>60.57306</latitude>
		<longitude>-151.245</longitude>
            	<html_url>https://w1.weather.gov/data/obhistory/PAEN.html</html_url>
            	<rss_url>https://weather.gov/xml/current_obs/PAEN.rss</rss_url>
            	<xml_url>https://weather.gov/xml/current_obs/PAEN.xml</xml_url>
	</station>

	<station>
		<station_id>PANN</station_id>
		<state>AK</state>
            	<station_name>Nenana Municipal Airport</station_name>
		<latitude>64.54796</latitude>
		<longitude>-149.08398</longitude>
            	<html_url>https://w1.weather.gov/data/obhistory/PANN.html</html_url>
            	<rss_url>https://weather.gov/xml/current_obs/PANN.rss</rss_url>
            	<xml_url>https://weather.gov/xml/current_obs/PANN.xml</xml_url>
	</station>

	<station>
		<station_id>PAFA</station_id>
		<state>AK</state>
            	<station_name>Fairbanks, Fairbanks International Airport</station_name>
		<latitude>64.80389</latitude>
		<longitude>-147.87611</longitude>
            	<html_url>https://w1.weather.gov/data/obhistory/PAFA.html</html_url>
            	<rss_url>https://weather.gov/xml/current_obs/PAFA.rss</rss_url>
            	<xml_url>https://weather.gov/xml/current_obs/PAFA.xml</xml_url>
	</station>

	<station>
		<station_id>PFYU</station_id>
		<state>AK</state>
            	<station_name>Fort Yukon, Fort Yukon Airport</station_name>
		<latitude>66.56667</latitude>
		<longitude>-145.26667</longitude>
            	<html_url>https://w1.weather.gov/data/obhistory/PFYU.html</html_url>
            	<rss_url>https://weather.gov/xml/current_obs/PFYU.rss</rss_url>
            	<xml_url>https://weather.gov/xml/current_obs/PFYU.xml</xml_url>
	</station>

	<station>
		<station_id>PAGA</station_id>
		<state>AK</state>
            	<station_name>Galena, Edward G. Pitka Sr. Airport</station_name>
		<latitude>64.73333</latitude>
		<longitude>-156.93333</longitude>
            	<html_url>https://w1.weather.gov/data/obhistory/PAGA.html</html_url>
            	<rss_url>https://weather.gov/xml/current_obs/PAGA.rss</rss_url>
            	<xml_url>https://weather.gov/xml/current_obs/PAGA.xml</xml_url>
	</station>

	<station>
		<station_id>PAGB</station_id>
		<state>AK</state>
            	<station_name>Galbraith Lake, Galbraith Lake Airport</station_name>
		<latitude>68.48333</latitude>
		<longitude>-149.48333</longitude>
            	<html_url>https://w1.weather.gov/data/obhistory/PAGB.html</html_url>
            	<rss_url>https://weather.gov/xml/current_obs/PAGB.rss</rss_url>
            	<xml_url>https://weather.gov/xml/current_obs/PAGB.xml</xml_url>
	</station>

	<station>
		<station_id>PAGK</station_id>
		<state>AK</state>
            	<station_name>Gulkana, Gulkana Airport</station_name>
		<latitude>62.15</latitude>
		<longitude>-145.45</longitude>
            	<html_url>https://w1.weather.gov/data/obhistory/PAGK.html</html_url>
            	<rss_url>https://weather.gov/xml/current_obs/PAGK.rss</rss_url>
            	<xml_url>https://weather.gov/xml/current_obs/PAGK.xml</xml_url>
	</station>

	<station>
		<station_id>PAGS</station_id>
		<state>AK</state>
            	<station_name>Gustavus, Gustavus Airport</station_name>
		<latitude>58.41667</latitude>
		<longitude>-135.7</longitude>
            	<html_url>https://w1.weather.gov/data/obhistory/PAGS.html</html_url>
            	<rss_url>https://weather.gov/xml/current_obs/PAGS.rss</rss_url>
            	<xml_url>https://weather.gov/xml/current_obs/PAGS.xml</xml_url>
	</station>

	<station>
		<station_id>PAHN</station_id>
		<state>AK</state>
            	<station_name>Haines - Haines Airport</station_name>
		<latitude>59.2429</latitude>
		<longitude>-135.5114</longitude>
            	<html_url>https://w1.weather.gov/data/obhistory/PAHN.html</html_url>
            	<rss_url>https://weather.gov/xml/current_obs/PAHN.rss</rss_url>
            	<xml_url>https://weather.gov/xml/current_obs/PAHN.xml</xml_url>
	</station>

	<station>
		<station_id>PAHO</station_id>
		<state>AK</state>
            	<station_name>Homer, Homer Airport</station_name>
		<latitude>59.65</latitude>
		<longitude>-151.48333</longitude>
            	<html_url>https://w1.weather.gov/data/obhistory/PAHO.html</html_url>
            	<rss_url>https://weather.gov/xml/current_obs/PAHO.rss</rss_url>
            	<xml_url>https://weather.gov/xml/current_obs/PAHO.xml</xml_url>
	</station>

	<station>
		<station_id>PAHY</station_id>
		<state>AK</state>
            	<station_name>Hydaburg - Hydaburg Seaplane Base</station_name>
		<latitude>55.2</latitude>
		<longitude>-132.83333</longitude>
            	<html_url>https://w1.weather.gov/data/obhistory/PAHY.html</html_url>
            	<rss_url>https://weather.gov/xml/current_obs/PAHY.rss</rss_url>
            	<xml_url>https://weather.gov/xml/current_obs/PAHY.xml</xml_url>
	</station>

	<station>
		<station_id>PAIL</station_id>
		<state>AK</state>
            	<station_name>Iliamna, Iliamna Airport</station_name>
		<latitude>59.75</latitude>
		<longitude>-154.9</longitude>
            	<html_url>https://w1.weather.gov/data/obhistory/PAIL.html</html_url>
            	<rss_url>https://weather.gov/xml/current_obs/PAIL.rss</rss_url>
            	<xml_url>https://weather.gov/xml/current_obs/PAIL.xml</xml_url>
	</station>

	<station>
		<station_id>PAIN</station_id>
		<state>AK</state>
            	<station_name>McKinley Park, McKinley National Park Airport</station_name>
		<latitude>63.73333</latitude>
		<longitude>-148.91667</longitude>
            	<html_url>https://w1.weather.gov/data/obhistory/PAIN.html</html_url>
            	<rss_url>https://weather.gov/xml/current_obs/PAIN.rss</rss_url>
            	<xml_url>https://weather.gov/xml/current_obs/PAIN.xml</xml_url>
	</station>

	<station>
		<station_id>PAJN</station_id>
		<state>AK</state>
            	<station_name>Juneau, Juneau International Airport</station_name>
		<latitude>58.35472</latitude>
		<longitude>-134.57611</longitude>
            	<html_url>https://w1.weather.gov/data/obhistory/PAJN.html</html_url>
            	<rss_url>https://weather.gov/xml/current_obs/PAJN.rss</rss_url>
            	<xml_url>https://weather.gov/xml/current_obs/PAJN.xml</xml_url>
	</station>

	<station>
		<station_id>PAFE</station_id>
		<state>AK</state>
            	<station_name>Kake - Kake Airport</station_name>
		<latitude>56.964</latitude>
		<longitude>-133.913</longitude>
            	<html_url>https://w1.weather.gov/data/obhistory/PAFE.html</html_url>
            	<rss_url>https://weather.gov/xml/current_obs/PAFE.rss</rss_url>
            	<xml_url>https://weather.gov/xml/current_obs/PAFE.xml</xml_url>
	</station>

	<station>
		<station_id>PASM</station_id>
		<state>AK</state>
            	<station_name>St. Mary's, St. Mary's Airport</station_name>
		<latitude>62.05</latitude>
		<longitude>-163.3</longitude>
            	<html_url>https://w1.weather.gov/data/obhistory/PASM.html</html_url>
            	<rss_url>https://weather.gov/xml/current_obs/PASM.rss</rss_url>
            	<xml_url>https://weather.gov/xml/current_obs/PASM.xml</xml_url>
	</station>

	<station>
		<station_id>PAKT</station_id>
		<state>AK</state>
            	<station_name>Ketchikan, Ketchikan International Airport</station_name>
		<latitude>55.35556</latitude>
		<longitude>-131.71361</longitude>
            	<html_url>https://w1.weather.gov/data/obhistory/PAKT.html</html_url>
            	<rss_url>https://weather.gov/xml/current_obs/PAKT.rss</rss_url>
            	<xml_url>https://weather.gov/xml/current_obs/PAKT.xml</xml_url>
	</station>

	<station>
		<station_id>PALH</station_id>
		<state>AK</state>
            	<station_name>Anchorage, Lake Hood Seaplane Base</station_name>
		<latitude>61.18333</latitude>
		<longitude>-149.96667</longitude>
            	<html_url>https://w1.weather.gov/data/obhistory/PALH.html</html_url>
            	<rss_url>https://weather.gov/xml/current_obs/PALH.rss</rss_url>
            	<xml_url>https://weather.gov/xml/current_obs/PALH.xml</xml_url>
	</station>

	<station>
		<station_id>PAMC</station_id>
		<state>AK</state>
            	<station_name>McGrath, McGrath Airport</station_name>
		<latitude>62.96667</latitude>
		<longitude>-155.61667</longitude>
            	<html_url>https://w1.weather.gov/data/obhistory/PAMC.html</html_url>
            	<rss_url>https://weather.gov/xml/current_obs/PAMC.rss</rss_url>
            	<xml_url>https://weather.gov/xml/current_obs/PAMC.xml</xml_url>
	</station>

	<station>
		<station_id>PAMD</station_id>
		<state>AK</state>
            	<station_name>Middleton Island Airport</station_name>
		<latitude>59.4423</latitude>
		<longitude>-146.3166</longitude>
            	<html_url>https://w1.weather.gov/data/obhistory/PAMD.html</html_url>
            	<rss_url>https://weather.gov/xml/current_obs/PAMD.rss</rss_url>
            	<xml_url>https://weather.gov/xml/current_obs/PAMD.xml</xml_url>
	</station>

	<station>
		<station_id>PAMO</station_id>
		<state>AK</state>
            	<station_name>Mountain Village</station_name>
		<latitude>62.0953</latitude>
		<longitude>-163.6819</longitude>
            	<html_url>https://w1.weather.gov/data/obhistory/PAMO.html</html_url>
            	<rss_url>https://weather.gov/xml/current_obs/PAMO.rss</rss_url>
            	<xml_url>https://weather.gov/xml/current_obs/PAMO.xml</xml_url>
	</station>

	<station>
		<station_id>PAMR</station_id>
		<state>AK</state>
            	<station_name>Anchorage, Merrill Field Airport</station_name>
		<latitude>61.21667</latitude>
		<longitude>-149.85</longitude>
            	<html_url>https://w1.weather.gov/data/obhistory/PAMR.html</html_url>
            	<rss_url>https://weather.gov/xml/current_obs/PAMR.rss</rss_url>
            	<xml_url>https://weather.gov/xml/current_obs/PAMR.xml</xml_url>
	</station>

	<station>
		<station_id>PAMY</station_id>
		<state>AK</state>
            	<station_name>Mekoryuk, Mekoryuk Airport</station_name>
		<latitude>60.36667</latitude>
		<longitude>-166.26667</longitude>
            	<html_url>https://w1.weather.gov/data/obhistory/PAMY.html</html_url>
            	<rss_url>https://weather.gov/xml/current_obs/PAMY.rss</rss_url>
            	<xml_url>https://weather.gov/xml/current_obs/PAMY.xml</xml_url>
	</station>

	<station>
		<station_id>PAOM</station_id>
		<state>AK</state>
            	<station_name>Nome, Nome Airport</station_name>
		<latitude>64.51194</latitude>
		<longitude>-165.445</longitude>
            	<html_url>https://w1.weather.gov/data/obhistory/PAOM.html</html_url>
            	<rss_url>https://weather.gov/xml/current_obs/PAOM.rss</rss_url>
            	<xml_url>https://weather.gov/xml/current_obs/PAOM.xml</xml_url>
	</station>

	<station>
		<station_id>PAOR</station_id>
		<state>AK</state>
            	<station_name>Northway, Northway Airport</station_name>
		<latitude>62.96111</latitude>
		<longitude>-141.92889</longitude>
            	<html_url>https://w1.weather.gov/data/obhistory/PAOR.html</html_url>
            	<rss_url>https://weather.gov/xml/current_obs/PAOR.rss</rss_url>
            	<xml_url>https://weather.gov/xml/current_obs/PAOR.xml</xml_url>
	</station>

	<station>
		<station_id>PAOT</station_id>
		<state>AK</state>
            	<station_name>Ralph Wien Memorial Airport</station_name>
		<latitude>66.88576</latitude>
		<longitude>-162.60624</longitude>
            	<html_url>https://w1.weather.gov/data/obhistory/PAOT.html</html_url>
            	<rss_url>https://weather.gov/xml/current_obs/PAOT.rss</rss_url>
            	<xml_url>https://weather.gov/xml/current_obs/PAOT.xml</xml_url>
	</station>

	<station>
		<station_id>PAAQ</station_id>
		<state>AK</state>
            	<station_name>Palmer, Palmer Municipal Airport</station_name>
		<latitude>61.6</latitude>
		<longitude>-149.08333</longitude>
            	<html_url>https://w1.weather.gov/data/obhistory/PAAQ.html</html_url>
            	<rss_url>https://weather.gov/xml/current_obs/PAAQ.rss</rss_url>
            	<xml_url>https://weather.gov/xml/current_obs/PAAQ.xml</xml_url>
	</station>

	<station>
		<station_id>PAPO</station_id>
		<state>AK</state>
            	<station_name>Point Hope, Point Hope Airport</station_name>
		<latitude>68.35</latitude>
		<longitude>-166.8</longitude>
            	<html_url>https://w1.weather.gov/data/obhistory/PAPO.html</html_url>
            	<rss_url>https://weather.gov/xml/current_obs/PAPO.rss</rss_url>
            	<xml_url>https://weather.gov/xml/current_obs/PAPO.xml</xml_url>
	</station>

	<station>
		<station_id>PPIZ</station_id>
		<state>AK</state>
            	<station_name>Point Lay, Point Lay LRRS Airport</station_name>
		<latitude>69.71667</latitude>
		<longitude>-163</longitude>
            	<html_url>https://w1.weather.gov/data/obhistory/PPIZ.html</html_url>
            	<rss_url>https://weather.gov/xml/current_obs/PPIZ.rss</rss_url>
            	<xml_url>https://weather.gov/xml/current_obs/PPIZ.xml</xml_url>
	</station>

	<station>
		<station_id>PALJ</station_id>
		<state>AK</state>
            	<station_name>Port Alsworth, Port Alsworth Airport</station_name>
		<latitude>60.2</latitude>
		<longitude>-154.31667</longitude>
            	<html_url>https://w1.weather.gov/data/obhistory/PALJ.html</html_url>
            	<rss_url>https://weather.gov/xml/current_obs/PALJ.rss</rss_url>
            	<xml_url>https://weather.gov/xml/current_obs/PALJ.xml</xml_url>
	</station>

	<station>
		<station_id>PAPH</station_id>
		<state>AK</state>
            	<station_name>Port Heiden, Port Heiden Airport</station_name>
		<latitude>56.95</latitude>
		<longitude>-158.63333</longitude>
            	<html_url>https://w1.weather.gov/data/obhistory/PAPH.html</html_url>
            	<rss_url>https://weather.gov/xml/current_obs/PAPH.rss</rss_url>
            	<xml_url>https://weather.gov/xml/current_obs/PAPH.xml</xml_url>
	</station>

	<station>
		<station_id>PAPT</station_id>
		<state>AK</state>
            	<station_name>Puntilla</station_name>
		<latitude>62.1</latitude>
		<longitude>-152.75</longitude>
            	<html_url>https://w1.weather.gov/data/obhistory/PAPT.html</html_url>
            	<rss_url>https://weather.gov/xml/current_obs/PAPT.rss</rss_url>
            	<xml_url>https://weather.gov/xml/current_obs/PAPT.xml</xml_url>
	</station>

	<station>
		<station_id>PASC</station_id>
		<state>AK</state>
            	<station_name>Deadhorse, Deadhorse Airport</station_name>
		<latitude>70.2</latitude>
		<longitude>-148.46667</longitude>
            	<html_url>https://w1.weather.gov/data/obhistory/PASC.html</html_url>
            	<rss_url>https://weather.gov/xml/current_obs/PASC.rss</rss_url>
            	<xml_url>https://weather.gov/xml/current_obs/PASC.xml</xml_url>
	</station>

	<station>
		<station_id>PASD</station_id>
		<state>AK</state>
            	<station_name>Sand Point</station_name>
		<latitude>55.31667</latitude>
		<longitude>-160.51667</longitude>
            	<html_url>https://w1.weather.gov/data/obhistory/PASD.html</html_url>
            	<rss_url>https://weather.gov/xml/current_obs/PASD.rss</rss_url>
            	<xml_url>https://weather.gov/xml/current_obs/PASD.xml</xml_url>
	</station>

	<station>
		<station_id>PAGY</station_id>
		<state>AK</state>
            	<station_name>Skagway</station_name>
		<latitude>59.4544</latitude>
		<longitude>-135.3263</longitude>
            	<html_url>https://w1.weather.gov/data/obhistory/PAGY.html</html_url>
            	<rss_url>https://weather.gov/xml/current_obs/PAGY.rss</rss_url>
            	<xml_url>https://weather.gov/xml/current_obs/PAGY.xml</xml_url>
	</station>

	<station>
		<station_id>PASH</station_id>
		<state>AK</state>
            	<station_name>Shishmaref, Shishmaref Airport</station_name>
		<latitude>66.26667</latitude>
		<longitude>-166.08333</longitude>
            	<html_url>https://w1.weather.gov/data/obhistory/PASH.html</html_url>
            	<rss_url>https://weather.gov/xml/current_obs/PASH.rss</rss_url>
            	<xml_url>https://weather.gov/xml/current_obs/PASH.xml</xml_url>
	</station>

	<station>
		<station_id>PASI</station_id>
		<state>AK</state>
            	<station_name>Sitka - Sitka Airport</station_name>
		<latitude>57.048</latitude>
		<longitude>-135.3647</longitude>
            	<html_url>https://w1.weather.gov/data/obhistory/PASI.html</html_url>
            	<rss_url>https://weather.gov/xml/current_obs/PASI.rss</rss_url>
            	<xml_url>https://weather.gov/xml/current_obs/PASI.xml</xml_url>
	</station>

	<station>
		<station_id>PASL</station_id>
		<state>AK</state>
            	<station_name>Sleetmute</station_name>
		<latitude>61.69735</latitude>
		<longitude>-157.16712</longitude>
            	<html_url>https://w1.weather.gov/data/obhistory/PASL.html</html_url>
            	<rss_url>https://weather.gov/xml/current_obs/PASL.rss</rss_url>
            	<xml_url>https://weather.gov/xml/current_obs/PASL.xml</xml_url>
	</station>

	<station>
		<station_id>PASN</station_id>
		<state>AK</state>
            	<station_name>St. Paul Island, St. Paul Island Airport</station_name>
		<latitude>57.16667</latitude>
		<longitude>-170.21667</longitude>
            	<html_url>https://w1.weather.gov/data/obhistory/PASN.html</html_url>
            	<rss_url>https://weather.gov/xml/current_obs/PASN.rss</rss_url>
            	<xml_url>https://weather.gov/xml/current_obs/PASN.xml</xml_url>
	</station>

	<station>
		<station_id>PASA</station_id>
		<state>AK</state>
            	<station_name>Savoonga Airport</station_name>
		<latitude>63.68333</latitude>
		<longitude>-170.5</longitude>
            	<html_url>https://w1.weather.gov/data/obhistory/PASA.html</html_url>
            	<rss_url>https://weather.gov/xml/current_obs/PASA.rss</rss_url>
            	<xml_url>https://weather.gov/xml/current_obs/PASA.xml</xml_url>
	</station>

	<station>
		<station_id>PAWD</station_id>
		<state>AK</state>
            	<station_name>Seward</station_name>
		<latitude>60.11667</latitude>
		<longitude>-149.45</longitude>
            	<html_url>https://w1.weather.gov/data/obhistory/PAWD.html</html_url>
            	<rss_url>https://weather.gov/xml/current_obs/PAWD.rss</rss_url>
            	<xml_url>https://weather.gov/xml/current_obs/PAWD.xml</xml_url>
	</station>

	<station>
		<station_id>PASX</station_id>
		<state>AK</state>
            	<station_name>Soldotna</station_name>
		<latitude>60.48333</latitude>
		<longitude>-151.03333</longitude>
            	<html_url>https://w1.weather.gov/data/obhistory/PASX.html</html_url>
            	<rss_url>https://weather.gov/xml/current_obs/PASX.rss</rss_url>
            	<xml_url>https://weather.gov/xml/current_obs/PASX.xml</xml_url>
	</station>

	<station>
		<station_id>PATA</station_id>
		<state>AK</state>
            	<station_name>Tanana, Calhoun Memorial Airport</station_name>
		<latitude>65.16667</latitude>
		<longitude>-152.1</longitude>
            	<html_url>https://w1.weather.gov/data/obhistory/PATA.html</html_url>
            	<rss_url>https://weather.gov/xml/current_obs/PATA.rss</rss_url>
            	<xml_url>https://weather.gov/xml/current_obs/PATA.xml</xml_url>
	</station>

	<station>
		<station_id>PATK</station_id>
		<state>AK</state>
            	<station_name>Talkeetna, Talkeetna Airport</station_name>
		<latitude>62.32056</latitude>
		<longitude>-150.09361</longitude>
            	<html_url>https://w1.weather.gov/data/obhistory/PATK.html</html_url>
            	<rss_url>https://weather.gov/xml/current_obs/PATK.rss</rss_url>
            	<xml_url>https://weather.gov/xml/current_obs/PATK.xml</xml_url>
	</station>

	<station>
		<station_id>PATG</station_id>
		<state>AK</state>
            	<station_name>Togiac Village, Togiak Airport</station_name>
		<latitude>59.05</latitude>
		<longitude>-160.4</longitude>
            	<html_url>https://w1.weather.gov/data/obhistory/PATG.html</html_url>
            	<rss_url>https://weather.gov/xml/current_obs/PATG.rss</rss_url>
            	<xml_url>https://weather.gov/xml/current_obs/PATG.xml</xml_url>
	</station>

	<station>
		<station_id>PAKU</station_id>
		<state>AK</state>
            	<station_name>Kuparuk, Ugnu-Kuparuk Airport</station_name>
		<latitude>70.31667</latitude>
		<longitude>-149.58333</longitude>
            	<html_url>https://w1.weather.gov/data/obhistory/PAKU.html</html_url>
            	<rss_url>https://weather.gov/xml/current_obs/PAKU.rss</rss_url>
            	<xml_url>https://weather.gov/xml/current_obs/PAKU.xml</xml_url>
	</station>

	<station>
		<station_id>PAUN</station_id>
		<state>AK</state>
            	<station_name>Unalakleet</station_name>
		<latitude>63.88333</latitude>
		<longitude>-160.8</longitude>
            	<html_url>https://w1.weather.gov/data/obhistory/PAUN.html</html_url>
            	<rss_url>https://weather.gov/xml/current_obs/PAUN.rss</rss_url>
            	<xml_url>https://weather.gov/xml/current_obs/PAUN.xml</xml_url>
	</station>

	<station>
		<station_id>PAVD</station_id>
		<state>AK</state>
            	<station_name>Valdez 2</station_name>
		<latitude>61.13333</latitude>
		<longitude>-146.26667</longitude>
            	<html_url>https://w1.weather.gov/data/obhistory/PAVD.html</html_url>
            	<rss_url>https://weather.gov/xml/current_obs/PAVD.rss</rss_url>
            	<xml_url>https://weather.gov/xml/current_obs/PAVD.xml</xml_url>
	</station>

	<station>
		<station_id>PAWG</station_id>
		<state>AK</state>
            	<station_name>Wrangell</station_name>
		<latitude>56.48333</latitude>
		<longitude>-132.36667</longitude>
            	<html_url>https://w1.weather.gov/data/obhistory/PAWG.html</html_url>
            	<rss_url>https://weather.gov/xml/current_obs/PAWG.rss</rss_url>
            	<xml_url>https://weather.gov/xml/current_obs/PAWG.xml</xml_url>
	</station>

	<station>
		<station_id>PAWN</station_id>
		<state>AK</state>
            	<station_name>Noatak, Noatak Airport</station_name>
		<latitude>67.56667</latitude>
		<longitude>-162.98333</longitude>
            	<html_url>https://w1.weather.gov/data/obhistory/PAWN.html</html_url>
            	<rss_url>https://weather.gov/xml/current_obs/PAWN.rss</rss_url>
            	<xml_url>https://weather.gov/xml/current_obs/PAWN.xml</xml_url>
	</station>

	<station>
		<station_id>PAYA</station_id>
		<state>AK</state>
            	<station_name>Yakutat</station_name>
		<latitude>59.51667</latitude>
		<longitude>-139.66667</longitude>
            	<html_url>https://w1.weather.gov/data/obhistory/PAYA.html</html_url>
            	<rss_url>https://weather.gov/xml/current_obs/PAYA.rss</rss_url>
            	<xml_url>https://weather.gov/xml/current_obs/PAYA.xml</xml_url>
	</station>

	<station>
		<station_id>PAPG</station_id>
		<state>AK</state>
            	<station_name>Petersburg</station_name>
		<latitude>56.8017</latitude>
		<longitude>-132.9453</longitude>
            	<html_url>https://w1.weather.gov/data/obhistory/PAPG.html</html_url>
            	<rss_url>https://weather.gov/xml/current_obs/PAPG.rss</rss_url>
            	<xml_url>https://weather.gov/xml/current_obs/PAPG.xml</xml_url>
	</station>

	<station>
		<station_id>PARY</station_id>
		<state>AK</state>
            	<station_name>Ruby</station_name>
		<latitude>64.7272</latitude>
		<longitude>-155.4697</longitude>
            	<html_url>https://w1.weather.gov/data/obhistory/PARY.html</html_url>
            	<rss_url>https://weather.gov/xml/current_obs/PARY.rss</rss_url>
            	<xml_url>https://weather.gov/xml/current_obs/PARY.xml</xml_url>
	</station>

	<station>
		<station_id>PAAK</station_id>
		<state>AK</state>
            	<station_name>Atka, Atka Airport</station_name>
		<latitude>52.22028</latitude>
		<longitude>-174.20639</longitude>
            	<html_url>https://w1.weather.gov/data/obhistory/PAAK.html</html_url>
            	<rss_url>https://weather.gov/xml/current_obs/PAAK.rss</rss_url>
            	<xml_url>https://weather.gov/xml/current_obs/PAAK.xml</xml_url>
	</station>

	<station>
		<station_id>PACZ</station_id>
		<state>AK</state>
            	<station_name>Cape Romanzof, Cape Romanzof LRRS Airport</station_name>
		<latitude>61.78333</latitude>
		<longitude>-166.03333</longitude>
            	<html_url>https://w1.weather.gov/data/obhistory/PACZ.html</html_url>
            	<rss_url>https://weather.gov/xml/current_obs/PACZ.rss</rss_url>
            	<xml_url>https://weather.gov/xml/current_obs/PACZ.xml</xml_url>
	</station>

	<station>
		<station_id>PADE</station_id>
		<state>AK</state>
            	<station_name>Deering, Deering/New Airport</station_name>
		<latitude>66.08333</latitude>
		<longitude>-162.75</longitude>
            	<html_url>https://w1.weather.gov/data/obhistory/PADE.html</html_url>
            	<rss_url>https://weather.gov/xml/current_obs/PADE.rss</rss_url>
            	<xml_url>https://weather.gov/xml/current_obs/PADE.xml</xml_url>
	</station>

	<station>
		<station_id>PAED</station_id>
		<state>AK</state>
            	<station_name>Anchorage, Elmendorf Air Force Base</station_name>
		<latitude>61.25306</latitude>
		<longitude>-149.79389</longitude>
            	<html_url>https://w1.weather.gov/data/obhistory/PAED.html</html_url>
            	<rss_url>https://weather.gov/xml/current_obs/PAED.rss</rss_url>
            	<xml_url>https://weather.gov/xml/current_obs/PAED.xml</xml_url>
	</station>

	<station>
		<station_id>PAEH</station_id>
		<state>AK</state>
            	<station_name>Cape Newenham, Cape Newenham LRRS Airport</station_name>
		<latitude>58.65</latitude>
		<longitude>-162.06667</longitude>
            	<html_url>https://w1.weather.gov/data/obhistory/PAEH.html</html_url>
            	<rss_url>https://weather.gov/xml/current_obs/PAEH.rss</rss_url>
            	<xml_url>https://weather.gov/xml/current_obs/PAEH.xml</xml_url>
	</station>

	<station>
		<station_id>PAEI</station_id>
		<state>AK</state>
            	<station_name>Fairbanks, Eielson Air Force Base</station_name>
		<latitude>64.65</latitude>
		<longitude>-147.1</longitude>
            	<html_url>https://w1.weather.gov/data/obhistory/PAEI.html</html_url>
            	<rss_url>https://weather.gov/xml/current_obs/PAEI.rss</rss_url>
            	<xml_url>https://weather.gov/xml/current_obs/PAEI.xml</xml_url>
	</station>

	<station>
		<station_id>PAFB</station_id>
		<state>AK</state>
            	<station_name>Fort Wainwright AAF</station_name>
		<latitude>64.83667</latitude>
		<longitude>-147.59556</longitude>
            	<html_url>https://w1.weather.gov/data/obhistory/PAFB.html</html_url>
            	<rss_url>https://weather.gov/xml/current_obs/PAFB.rss</rss_url>
            	<xml_url>https://weather.gov/xml/current_obs/PAFB.xml</xml_url>
	</station>

	<station>
		<station_id>PAFR</station_id>
		<state>AK</state>
            	<station_name>Ft. Richardson / Bryant U. S. Army Heliport, Ak</station_name>
		<latitude>61.26667</latitude>
		<longitude>-149.65</longitude>
            	<html_url>https://w1.weather.gov/data/obhistory/PAFR.html</html_url>
            	<rss_url>https://weather.gov/xml/current_obs/PAFR.rss</rss_url>
            	<xml_url>https://weather.gov/xml/current_obs/PAFR.xml</xml_url>
	</station>

	<station>
		<station_id>PAGL</station_id>
		<state>AK</state>
            	<station_name>Golovin, Golovin Airport</station_name>
		<latitude>64.54333</latitude>
		<longitude>-163.03944</longitude>
            	<html_url>https://w1.weather.gov/data/obhistory/PAGL.html</html_url>
            	<rss_url>https://weather.gov/xml/current_obs/PAGL.rss</rss_url>
            	<xml_url>https://weather.gov/xml/current_obs/PAGL.xml</xml_url>
	</station>

	<station>
		<station_id>PAII</station_id>
		<state>AK</state>
            	<station_name>Egegik, Egegik Airport</station_name>
		<latitude>58.18528</latitude>
		<longitude>-157.38556</longitude>
            	<html_url>https://w1.weather.gov/data/obhistory/PAII.html</html_url>
            	<rss_url>https://weather.gov/xml/current_obs/PAII.rss</rss_url>
            	<xml_url>https://weather.gov/xml/current_obs/PAII.xml</xml_url>
	</station>

	<station>
		<station_id>PAIK</station_id>
		<state>AK</state>
            	<station_name>Kinana / Bob Baker Me</station_name>
		<latitude>66.98333</latitude>
		<longitude>-160.43333</longitude>
            	<html_url>https://w1.weather.gov/data/obhistory/PAIK.html</html_url>
            	<rss_url>https://weather.gov/xml/current_obs/PAIK.rss</rss_url>
            	<xml_url>https://weather.gov/xml/current_obs/PAIK.xml</xml_url>
	</station>

	<station>
		<station_id>PAJC</station_id>
		<state>AK</state>
            	<station_name>Chignik, Chignik Airport</station_name>
		<latitude>56.31139</latitude>
		<longitude>-158.37333</longitude>
            	<html_url>https://w1.weather.gov/data/obhistory/PAJC.html</html_url>
            	<rss_url>https://weather.gov/xml/current_obs/PAJC.rss</rss_url>
            	<xml_url>https://weather.gov/xml/current_obs/PAJC.xml</xml_url>
	</station>

	<station>
		<station_id>PAKK</station_id>
		<state>AK</state>
            	<station_name>Koyuk, Koyuk Airport</station_name>
		<latitude>64.93389</latitude>
		<longitude>-161.15806</longitude>
            	<html_url>https://w1.weather.gov/data/obhistory/PAKK.html</html_url>
            	<rss_url>https://weather.gov/xml/current_obs/PAKK.rss</rss_url>
            	<xml_url>https://weather.gov/xml/current_obs/PAKK.xml</xml_url>
	</station>

	<station>
		<station_id>PALP</station_id>
		<state>AK</state>
            	<station_name>Deadhorse, Alpine Airstrip</station_name>
		<latitude>70.33333</latitude>
		<longitude>-150.93333</longitude>
            	<html_url>https://w1.weather.gov/data/obhistory/PALP.html</html_url>
            	<rss_url>https://weather.gov/xml/current_obs/PALP.rss</rss_url>
            	<xml_url>https://weather.gov/xml/current_obs/PALP.xml</xml_url>
	</station>

	<station>
		<station_id>PALU</station_id>
		<state>AK</state>
            	<station_name>Cape Lisburne, Cape Lisburne LRRS Airport</station_name>
		<latitude>68.88333</latitude>
		<longitude>-166.1</longitude>
            	<html_url>https://w1.weather.gov/data/obhistory/PALU.html</html_url>
            	<rss_url>https://weather.gov/xml/current_obs/PALU.rss</rss_url>
            	<xml_url>https://weather.gov/xml/current_obs/PALU.xml</xml_url>
	</station>

	<station>
		<station_id>PAMM</station_id>
		<state>AK</state>
            	<station_name>Metlakatla, Metlakatla Seaplane Base</station_name>
		<latitude>55.13111</latitude>
		<longitude>-131.57806</longitude>
            	<html_url>https://w1.weather.gov/data/obhistory/PAMM.html</html_url>
            	<rss_url>https://weather.gov/xml/current_obs/PAMM.rss</rss_url>
            	<xml_url>https://weather.gov/xml/current_obs/PAMM.xml</xml_url>
	</station>

	<station>
		<station_id>PAPM</station_id>
		<state>AK</state>
            	<station_name>Platinum</station_name>
		<latitude>59.01667</latitude>
		<longitude>-161.81667</longitude>
            	<html_url>https://w1.weather.gov/data/obhistory/PAPM.html</html_url>
            	<rss_url>https://weather.gov/xml/current_obs/PAPM.rss</rss_url>
            	<xml_url>https://weather.gov/xml/current_obs/PAPM.xml</xml_url>
	</station>

	<station>
		<station_id>PAQT</station_id>
		<state>AK</state>
            	<station_name>Nuiqsut, Nuiqsut Airport</station_name>
		<latitude>70.21</latitude>
		<longitude>-151.00556</longitude>
            	<html_url>https://w1.weather.gov/data/obhistory/PAQT.html</html_url>
            	<rss_url>https://weather.gov/xml/current_obs/PAQT.rss</rss_url>
            	<xml_url>https://weather.gov/xml/current_obs/PAQT.xml</xml_url>
	</station>

	<station>
		<station_id>PASK</station_id>
		<state>AK</state>
            	<station_name>Selawik</station_name>
		<latitude>66.61667</latitude>
		<longitude>-160</longitude>
            	<html_url>https://w1.weather.gov/data/obhistory/PASK.html</html_url>
            	<rss_url>https://weather.gov/xml/current_obs/PASK.rss</rss_url>
            	<xml_url>https://weather.gov/xml/current_obs/PASK.xml</xml_url>
	</station>

	<station>
		<station_id>PASO</station_id>
		<state>AK</state>
            	<station_name>Seldovia, Seldovia Airport</station_name>
		<latitude>59.45</latitude>
		<longitude>-151.7</longitude>
            	<html_url>https://w1.weather.gov/data/obhistory/PASO.html</html_url>
            	<rss_url>https://weather.gov/xml/current_obs/PASO.rss</rss_url>
            	<xml_url>https://weather.gov/xml/current_obs/PASO.xml</xml_url>
	</station>

	<station>
		<station_id>PASV</station_id>
		<state>AK</state>
            	<station_name>Sparrevohn Airways Facilities Sector</station_name>
		<latitude>61.1</latitude>
		<longitude>-155.56667</longitude>
            	<html_url>https://w1.weather.gov/data/obhistory/PASV.html</html_url>
            	<rss_url>https://weather.gov/xml/current_obs/PASV.rss</rss_url>
            	<xml_url>https://weather.gov/xml/current_obs/PASV.xml</xml_url>
	</station>

	<station>
		<station_id>PASY</station_id>
		<state>AK</state>
            	<station_name>Shemya, Eareckson AFB</station_name>
		<latitude>52.71667</latitude>
		<longitude>174.11667</longitude>
            	<html_url>https://w1.weather.gov/data/obhistory/PASY.html</html_url>
            	<rss_url>https://weather.gov/xml/current_obs/PASY.rss</rss_url>
            	<xml_url>https://weather.gov/xml/current_obs/PASY.xml</xml_url>
	</station>

	<station>
		<station_id>PATC</station_id>
		<state>AK</state>
            	<station_name>Tin City Airways Facilities Sector</station_name>
		<latitude>65.56667</latitude>
		<longitude>-167.91667</longitude>
            	<html_url>https://w1.weather.gov/data/obhistory/PATC.html</html_url>
            	<rss_url>https://weather.gov/xml/current_obs/PATC.rss</rss_url>
            	<xml_url>https://weather.gov/xml/current_obs/PATC.xml</xml_url>
	</station>

	<station>
		<station_id>PATL</station_id>
		<state>AK</state>
            	<station_name>Takotna, Tatalina LRRS Airport</station_name>
		<latitude>62.9</latitude>
		<longitude>-155.98333</longitude>
            	<html_url>https://w1.weather.gov/data/obhistory/PATL.html</html_url>
            	<rss_url>https://weather.gov/xml/current_obs/PATL.rss</rss_url>
            	<xml_url>https://weather.gov/xml/current_obs/PATL.xml</xml_url>
	</station>

	<station>
		<station_id>PATO</station_id>
		<state>AK</state>
            	<station_name>Portage, Portage Glacier</station_name>
		<latitude>60.78333</latitude>
		<longitude>-148.83333</longitude>
            	<html_url>https://w1.weather.gov/data/obhistory/PATO.html</html_url>
            	<rss_url>https://weather.gov/xml/current_obs/PATO.rss</rss_url>
            	<xml_url>https://weather.gov/xml/current_obs/PATO.xml</xml_url>
	</station>

	<station>
		<station_id>PAVL</station_id>
		<state>AK</state>
            	<station_name>Kivalina, Kivalina Airport</station_name>
		<latitude>67.73333</latitude>
		<longitude>-164.55</longitude>
            	<html_url>https://w1.weather.gov/data/obhistory/PAVL.html</html_url>
            	<rss_url>https://weather.gov/xml/current_obs/PAVL.rss</rss_url>
            	<xml_url>https://weather.gov/xml/current_obs/PAVL.xml</xml_url>
	</station>

	<station>
		<station_id>PAWS</station_id>
		<state>AK</state>
            	<station_name>Wasilla, Wasilla Airport</station_name>
		<latitude>61.57194</latitude>
		<longitude>-149.54056</longitude>
            	<html_url>https://w1.weather.gov/data/obhistory/PAWS.html</html_url>
            	<rss_url>https://weather.gov/xml/current_obs/PAWS.rss</rss_url>
            	<xml_url>https://weather.gov/xml/current_obs/PAWS.xml</xml_url>
	</station>

	<station>
		<station_id>PAHL</station_id>
		<state>AK</state>
            	<station_name>Huslia, Huslia Airport</station_name>
		<latitude>65.6975</latitude>
		<longitude>-156.35111</longitude>
            	<html_url>https://w1.weather.gov/data/obhistory/PAHL.html</html_url>
            	<rss_url>https://weather.gov/xml/current_obs/PAHL.rss</rss_url>
            	<xml_url>https://weather.gov/xml/current_obs/PAHL.xml</xml_url>
	</station>

	<station>
		<station_id>PAKI</station_id>
		<state>AK</state>
            	<station_name>Kipnuk, Kipnuk Airport</station_name>
		<latitude>59.93278</latitude>
		<longitude>-164.03028</longitude>
            	<html_url>https://w1.weather.gov/data/obhistory/PAKI.html</html_url>
            	<rss_url>https://weather.gov/xml/current_obs/PAKI.rss</rss_url>
            	<xml_url>https://weather.gov/xml/current_obs/PAKI.xml</xml_url>
	</station>

	<station>
		<station_id>PACM</station_id>
		<state>AK</state>
            	<station_name>Scammon Bay</station_name>
		<latitude>61.8453</latitude>
		<longitude>-165.5713</longitude>
            	<html_url>https://w1.weather.gov/data/obhistory/PACM.html</html_url>
            	<rss_url>https://weather.gov/xml/current_obs/PACM.rss</rss_url>
            	<xml_url>https://weather.gov/xml/current_obs/PACM.xml</xml_url>
	</station>

	<station>
		<station_id>PADM</station_id>
		<state>AK</state>
            	<station_name>Marshall</station_name>
		<latitude>61.8643</latitude>
		<longitude>-162.0261</longitude>
            	<html_url>https://w1.weather.gov/data/obhistory/PADM.html</html_url>
            	<rss_url>https://weather.gov/xml/current_obs/PADM.rss</rss_url>
            	<xml_url>https://weather.gov/xml/current_obs/PADM.xml</xml_url>
	</station>

	<station>
		<station_id>PAFS</station_id>
		<state>AK</state>
            	<station_name>Nikolai</station_name>
		<latitude>63.019</latitude>
		<longitude>-154.358</longitude>
            	<html_url>https://w1.weather.gov/data/obhistory/PAFS.html</html_url>
            	<rss_url>https://weather.gov/xml/current_obs/PAFS.rss</rss_url>
            	<xml_url>https://weather.gov/xml/current_obs/PAFS.xml</xml_url>
	</station>

	<station>
		<station_id>PAHC</station_id>
		<state>AK</state>
            	<station_name>Holy Cross</station_name>
		<latitude>62.1873</latitude>
		<longitude>-159.77657</longitude>
            	<html_url>https://w1.weather.gov/data/obhistory/PAHC.html</html_url>
            	<rss_url>https://weather.gov/xml/current_obs/PAHC.rss</rss_url>
            	<xml_url>https://weather.gov/xml/current_obs/PAHC.xml</xml_url>
	</station>

	<station>
		<station_id>PAIG</station_id>
		<state>AK</state>
            	<station_name>Igiugig</station_name>
		<latitude>59.32395</latitude>
		<longitude>-155.90235</longitude>
            	<html_url>https://w1.weather.gov/data/obhistory/PAIG.html</html_url>
            	<rss_url>https://weather.gov/xml/current_obs/PAIG.rss</rss_url>
            	<xml_url>https://weather.gov/xml/current_obs/PAIG.xml</xml_url>
	</station>

	<station>
		<station_id>PAJZ</station_id>
		<state>AK</state>
            	<station_name>Koliganek</station_name>
		<latitude>59.727</latitude>
		<longitude>-157.259</longitude>
            	<html_url>https://w1.weather.gov/data/obhistory/PAJZ.html</html_url>
            	<rss_url>https://weather.gov/xml/current_obs/PAJZ.rss</rss_url>
            	<xml_url>https://weather.gov/xml/current_obs/PAJZ.xml</xml_url>
	</station>

	<station>
		<station_id>PALG</station_id>
		<state>AK</state>
            	<station_name>Kalskag</station_name>
		<latitude>61.5364</latitude>
		<longitude>-160.3414</longitude>
            	<html_url>https://w1.weather.gov/data/obhistory/PALG.html</html_url>
            	<rss_url>https://weather.gov/xml/current_obs/PALG.rss</rss_url>
            	<xml_url>https://weather.gov/xml/current_obs/PALG.xml</xml_url>
	</station>

	<station>
		<station_id>PAMB</station_id>
		<state>AK</state>
            	<station_name>Manokotak</station_name>
		<latitude>58.9902</latitude>
		<longitude>-159.0499</longitude>
            	<html_url>https://w1.weather.gov/data/obhistory/PAMB.html</html_url>
            	<rss_url>https://weather.gov/xml/current_obs/PAMB.rss</rss_url>
            	<xml_url>https://weather.gov/xml/current_obs/PAMB.xml</xml_url>
	</station>

	<station>
		<station_id>PAMK</station_id>
		<state>AK</state>
            	<station_name>St Michael Airport</station_name>
		<latitude>63.49006</latitude>
		<longitude>-162.11039</longitude>
            	<html_url>https://w1.weather.gov/data/obhistory/PAMK.html</html_url>
            	<rss_url>https://weather.gov/xml/current_obs/PAMK.rss</rss_url>
            	<xml_url>https://weather.gov/xml/current_obs/PAMK.xml</xml_url>
	</station>

	<station>
		<station_id>PANW</station_id>
		<state>AK</state>
            	<station_name>New Stuyahok</station_name>
		<latitude>59.45</latitude>
		<longitude>-157.328</longitude>
            	<html_url>https://w1.weather.gov/data/obhistory/PANW.html</html_url>
            	<rss_url>https://weather.gov/xml/current_obs/PANW.rss</rss_url>
            	<xml_url>https://weather.gov/xml/current_obs/PANW.xml</xml_url>
	</station>

	<station>
		<station_id>PAOO</station_id>
		<state>AK</state>
            	<station_name>Toksook Bay</station_name>
		<latitude>60.53352</latitude>
		<longitude>-165.1143</longitude>
            	<html_url>https://w1.weather.gov/data/obhistory/PAOO.html</html_url>
            	<rss_url>https://weather.gov/xml/current_obs/PAOO.rss</rss_url>
            	<xml_url>https://weather.gov/xml/current_obs/PAOO.xml</xml_url>
	</station>

	<station>
		<station_id>PAOU</station_id>
		<state>AK</state>
            	<station_name>Nelson Lagoon</station_name>
		<latitude>56.008</latitude>
		<longitude>-161.16</longitude>
            	<html_url>https://w1.weather.gov/data/obhistory/PAOU.html</html_url>
            	<rss_url>https://weather.gov/xml/current_obs/PAOU.rss</rss_url>
            	<xml_url>https://weather.gov/xml/current_obs/PAOU.xml</xml_url>
	</station>

	<station>
		<station_id>PARS</station_id>
		<state>AK</state>
            	<station_name>Russian Mission</station_name>
		<latitude>61.775</latitude>
		<longitude>-161.3194</longitude>
            	<html_url>https://w1.weather.gov/data/obhistory/PARS.html</html_url>
            	<rss_url>https://weather.gov/xml/current_obs/PARS.rss</rss_url>
            	<xml_url>https://weather.gov/xml/current_obs/PARS.xml</xml_url>
	</station>

	<station>
		<station_id>PATQ</station_id>
		<state>AK</state>
            	<station_name>Atqasuk</station_name>
		<latitude>70.4673</latitude>
		<longitude>-157.4357</longitude>
            	<html_url>https://w1.weather.gov/data/obhistory/PATQ.html</html_url>
            	<rss_url>https://weather.gov/xml/current_obs/PATQ.rss</rss_url>
            	<xml_url>https://weather.gov/xml/current_obs/PATQ.xml</xml_url>
	</station>

	<station>
		<station_id>PAVC</station_id>
		<state>AK</state>
            	<station_name>King Cove</station_name>
		<latitude>55.116</latitude>
		<longitude>-162.266</longitude>
            	<html_url>https://w1.weather.gov/data/obhistory/PAVC.html</html_url>
            	<rss_url>https://weather.gov/xml/current_obs/PAVC.rss</rss_url>
            	<xml_url>https://weather.gov/xml/current_obs/PAVC.xml</xml_url>
	</station>

	<station>
		<station_id>PFSH</station_id>
		<state>AK</state>
            	<station_name>Shaktoolik Airport</station_name>
		<latitude>64.3711</latitude>
		<longitude>-161.224</longitude>
            	<html_url>https://w1.weather.gov/data/obhistory/PFSH.html</html_url>
            	<rss_url>https://weather.gov/xml/current_obs/PFSH.rss</rss_url>
            	<xml_url>https://weather.gov/xml/current_obs/PFSH.xml</xml_url>
	</station>

	<station>
		<station_id>PFNO</station_id>
		<state>AK</state>
            	<station_name>Noorvik</station_name>
		<latitude>66.8175</latitude>
		<longitude>-161.0223</longitude>
            	<html_url>https://w1.weather.gov/data/obhistory/PFNO.html</html_url>
            	<rss_url>https://weather.gov/xml/current_obs/PFNO.rss</rss_url>
            	<xml_url>https://weather.gov/xml/current_obs/PFNO.xml</xml_url>
	</station>

	<station>
		<station_id>PAGH</station_id>
		<state>AK</state>
            	<station_name>Shungnak Airport</station_name>
		<latitude>66.8881</latitude>
		<longitude>-157.1624</longitude>
            	<html_url>https://w1.weather.gov/data/obhistory/PAGH.html</html_url>
            	<rss_url>https://weather.gov/xml/current_obs/PAGH.rss</rss_url>
            	<xml_url>https://weather.gov/xml/current_obs/PAGH.xml</xml_url>
	</station>

	<station>
		<station_id>PAIW</station_id>
		<state>AK</state>
            	<station_name>Wales</station_name>
		<latitude>65.6226</latitude>
		<longitude>-168.0949</longitude>
            	<html_url>https://w1.weather.gov/data/obhistory/PAIW.html</html_url>
            	<rss_url>https://weather.gov/xml/current_obs/PAIW.rss</rss_url>
            	<xml_url>https://weather.gov/xml/current_obs/PAIW.xml</xml_url>
	</station>

	<station>
		<station_id>PATE</station_id>
		<state>AK</state>
            	<station_name>Teller</station_name>
		<latitude>65.2404</latitude>
		<longitude>-166.3393</longitude>
            	<html_url>https://w1.weather.gov/data/obhistory/PATE.html</html_url>
            	<rss_url>https://weather.gov/xml/current_obs/PATE.rss</rss_url>
            	<xml_url>https://weather.gov/xml/current_obs/PATE.xml</xml_url>
	</station>

	<station>
		<station_id>PAHX</station_id>
		<state>AK</state>
            	<station_name>Shageluk Airport</station_name>
		<latitude>62.6923</latitude>
		<longitude>-159.5692</longitude>
            	<html_url>https://w1.weather.gov/data/obhistory/PAHX.html</html_url>
            	<rss_url>https://weather.gov/xml/current_obs/PAHX.rss</rss_url>
            	<xml_url>https://weather.gov/xml/current_obs/PAHX.xml</xml_url>
	</station>

	<station>
		<station_id>PFWS</station_id>
		<state>AK</state>
            	<station_name>South Naknek Nr 2 Airport</station_name>
		<latitude>58.7021</latitude>
		<longitude>-157.0026</longitude>
            	<html_url>https://w1.weather.gov/data/obhistory/PFWS.html</html_url>
            	<rss_url>https://weather.gov/xml/current_obs/PFWS.rss</rss_url>
            	<xml_url>https://weather.gov/xml/current_obs/PFWS.xml</xml_url>
	</station>

	<station>
		<station_id>PFCL</station_id>
		<state>AK</state>
            	<station_name>Clarks Point Airport</station_name>
		<latitude>58.8337</latitude>
		<longitude>-158.5294</longitude>
            	<html_url>https://w1.weather.gov/data/obhistory/PFCL.html</html_url>
            	<rss_url>https://weather.gov/xml/current_obs/PFCL.rss</rss_url>
            	<xml_url>https://weather.gov/xml/current_obs/PFCL.xml</xml_url>
	</station>

	<station>
		<station_id>PAQH</station_id>
		<state>AK</state>
            	<station_name>Quinhagak Airport</station_name>
		<latitude>59.7551</latitude>
		<longitude>-161.8454</longitude>
            	<html_url>https://w1.weather.gov/data/obhistory/PAQH.html</html_url>
            	<rss_url>https://weather.gov/xml/current_obs/PAQH.rss</rss_url>
            	<xml_url>https://weather.gov/xml/current_obs/PAQH.xml</xml_url>
	</station>

	<station>
		<station_id>PANA</station_id>
		<state>AK</state>
            	<station_name>Napakiak Airport</station_name>
		<latitude>60.6903</latitude>
		<longitude>-161.9785</longitude>
            	<html_url>https://w1.weather.gov/data/obhistory/PANA.html</html_url>
            	<rss_url>https://weather.gov/xml/current_obs/PANA.rss</rss_url>
            	<xml_url>https://weather.gov/xml/current_obs/PANA.xml</xml_url>
	</station>

	<station>
		<station_id>PFKW</station_id>
		<state>AK</state>
            	<station_name>Kwethluk Airport</station_name>
		<latitude>60.7903</latitude>
		<longitude>-161.4437</longitude>
            	<html_url>https://w1.weather.gov/data/obhistory/PFKW.html</html_url>
            	<rss_url>https://weather.gov/xml/current_obs/PFKW.rss</rss_url>
            	<xml_url>https://weather.gov/xml/current_obs/PFKW.xml</xml_url>
	</station>

	<station>
		<station_id>PPIT</station_id>
		<state>AK</state>
            	<station_name>Nunapitchuk Airport</station_name>
		<latitude>60.906</latitude>
		<longitude>-162.4406</longitude>
            	<html_url>https://w1.weather.gov/data/obhistory/PPIT.html</html_url>
            	<rss_url>https://weather.gov/xml/current_obs/PPIT.rss</rss_url>
            	<xml_url>https://weather.gov/xml/current_obs/PPIT.xml</xml_url>
	</station>

	<station>
		<station_id>PAAD</station_id>
		<state>AK</state>
            	<station_name>Point Thomson Airstrip</station_name>
		<latitude>70.136</latitude>
		<longitude>-146.2901</longitude>
            	<html_url>https://w1.weather.gov/data/obhistory/PAAD.html</html_url>
            	<rss_url>https://weather.gov/xml/current_obs/PAAD.rss</rss_url>
            	<xml_url>https://weather.gov/xml/current_obs/PAAD.xml</xml_url>
	</station>

	<station>
		<station_id>PANU</station_id>
		<state>AK</state>
            	<station_name>Nulato Airport</station_name>
		<latitude>64.72933</latitude>
		<longitude>-158.07422</longitude>
            	<html_url>https://w1.weather.gov/data/obhistory/PANU.html</html_url>
            	<rss_url>https://weather.gov/xml/current_obs/PANU.rss</rss_url>
            	<xml_url>https://weather.gov/xml/current_obs/PANU.xml</xml_url>
	</station>

	<station>
		<station_id>PFZK</station_id>
		<state>AK</state>
            	<station_name>Akiachak Airport</station_name>
		<latitude>60.91381</latitude>
		<longitude>-161.49333</longitude>
            	<html_url>https://w1.weather.gov/data/obhistory/PFZK.html</html_url>
            	<rss_url>https://weather.gov/xml/current_obs/PFZK.rss</rss_url>
            	<xml_url>https://weather.gov/xml/current_obs/PFZK.xml</xml_url>
	</station>

	<station>
		<station_id>PFKO</station_id>
		<state>AK</state>
            	<station_name>Kotlik Airport</station_name>
		<latitude>63.03058</latitude>
		<longitude>-163.53264</longitude>
            	<html_url>https://w1.weather.gov/data/obhistory/PFKO.html</html_url>
            	<rss_url>https://weather.gov/xml/current_obs/PFKO.rss</rss_url>
            	<xml_url>https://weather.gov/xml/current_obs/PFKO.xml</xml_url>
	</station>

	<station>
		<station_id>K79J</station_id>
		<state>AL</state>
            	<station_name>Andalusia, Andalusia-Opp Municipal Airport</station_name>
		<latitude>31.3</latitude>
		<longitude>-86.38333</longitude>
            	<html_url>https://w1.weather.gov/data/obhistory/K79J.html</html_url>
            	<rss_url>https://weather.gov/xml/current_obs/K79J.rss</rss_url>
            	<xml_url>https://weather.gov/xml/current_obs/K79J.xml</xml_url>
	</station>

	<station>
		<station_id>KANB</station_id>
		<state>AL</state>
            	<station_name>Anniston Metro Airport</station_name>
		<latitude>33.59045</latitude>
		<longitude>-85.84789</longitude>
            	<html_url>https://w1.weather.gov/data/obhistory/KANB.html</html_url>
            	<rss_url>https://weather.gov/xml/current_obs/KANB.rss</rss_url>
            	<xml_url>https://weather.gov/xml/current_obs/KANB.xml</xml_url>
	</station>

	<station>
		<station_id>KAUO</station_id>
		<state>AL</state>
            	<station_name>Auburn-Opelika Airport</station_name>
		<latitude>32.61667</latitude>
		<longitude>-85.43333</longitude>
            	<html_url>https://w1.weather.gov/data/obhistory/KAUO.html</html_url>
            	<rss_url>https://weather.gov/xml/current_obs/KAUO.rss</rss_url>
            	<xml_url>https://weather.gov/xml/current_obs/KAUO.xml</xml_url>
	</station>

	<station>
		<station_id>KBFM</station_id>
		<state>AL</state>
            	<station_name>Mobile, Mobile Downtown Airport</station_name>
		<latitude>30.61389</latitude>
		<longitude>-88.06333</longitude>
            	<html_url>https://w1.weather.gov/data/obhistory/KBFM.html</html_url>
            	<rss_url>https://weather.gov/xml/current_obs/KBFM.rss</rss_url>
            	<xml_url>https://weather.gov/xml/current_obs/KBFM.xml</xml_url>
	</station>

	<station>
		<station_id>KBHM</station_id>
		<state>AL</state>
            	<station_name>Birmingham, Birmingham International Airport</station_name>
		<latitude>33.56556</latitude>
		<longitude>-86.745</longitude>
            	<html_url>https://w1.weather.gov/data/obhistory/KBHM.html</html_url>
            	<rss_url>https://weather.gov/xml/current_obs/KBHM.rss</rss_url>
            	<xml_url>https://weather.gov/xml/current_obs/KBHM.xml</xml_url>
	</station>

	<station>
		<station_id>KDCU</station_id>
		<state>AL</state>
            	<station_name>Decatur, Pryor Field</station_name>
		<latitude>34.65806</latitude>
		<longitude>-86.94333</longitude>
            	<html_url>https://w1.weather.gov/data/obhistory/KDCU.html</html_url>
            	<rss_url>https://weather.gov/xml/current_obs/KDCU.rss</rss_url>
            	<xml_url>https://weather.gov/xml/current_obs/KDCU.xml</xml_url>
	</station>

	<station>
		<station_id>KDHN</station_id>
		<state>AL</state>
            	<station_name>Dothan, Dothan Regional Airport</station_name>
		<latitude>31.32139</latitude>
		<longitude>-85.44972</longitude>
            	<html_url>https://w1.weather.gov/data/obhistory/KDHN.html</html_url>
            	<rss_url>https://weather.gov/xml/current_obs/KDHN.rss</rss_url>
            	<xml_url>https://weather.gov/xml/current_obs/KDHN.xml</xml_url>
	</station>

	<station>
		<station_id>KEET</station_id>
		<state>AL</state>
            	<station_name>Alabaster, Shelby County Airport</station_name>
		<latitude>33.17833</latitude>
		<longitude>-86.78167</longitude>
            	<html_url>https://w1.weather.gov/data/obhistory/KEET.html</html_url>
            	<rss_url>https://weather.gov/xml/current_obs/KEET.rss</rss_url>
            	<xml_url>https://weather.gov/xml/current_obs/KEET.xml</xml_url>
	</station>

	<station>
		<station_id>KGAD</station_id>
		<state>AL</state>
            	<station_name>Gadsden, Gadsden Municipal Airport</station_name>
		<latitude>33.96667</latitude>
		<longitude>-86.08333</longitude>
            	<html_url>https://w1.weather.gov/data/obhistory/KGAD.html</html_url>
            	<rss_url>https://weather.gov/xml/current_obs/KGAD.rss</rss_url>
            	<xml_url>https://weather.gov/xml/current_obs/KGAD.xml</xml_url>
	</station>

	<station>
		<station_id>KGZH</station_id>
		<state>AL</state>
            	<station_name>Evergreen, Middleton Field</station_name>
		<latitude>31.41889</latitude>
		<longitude>-87.04806</longitude>
            	<html_url>https://w1.weather.gov/data/obhistory/KGZH.html</html_url>
            	<rss_url>https://weather.gov/xml/current_obs/KGZH.rss</rss_url>
            	<xml_url>https://weather.gov/xml/current_obs/KGZH.xml</xml_url>
	</station>

	<station>
		<station_id>KHEY</station_id>
		<state>AL</state>
            	<station_name>Hanchey AHP / Ozark</station_name>
		<latitude>31.35</latitude>
		<longitude>-85.66667</longitude>
            	<html_url>https://w1.weather.gov/data/obhistory/KHEY.html</html_url>
            	<rss_url>https://weather.gov/xml/current_obs/KHEY.rss</rss_url>
            	<xml_url>https://weather.gov/xml/current_obs/KHEY.xml</xml_url>
	</station>

	<station>
		<station_id>KHSV</station_id>
		<state>AL</state>
            	<station_name>Huntsville, Huntsville International / Jones Field</station_name>
		<latitude>34.64361</latitude>
		<longitude>-86.78556</longitude>
            	<html_url>https://w1.weather.gov/data/obhistory/KHSV.html</html_url>
            	<rss_url>https://weather.gov/xml/current_obs/KHSV.rss</rss_url>
            	<xml_url>https://weather.gov/xml/current_obs/KHSV.xml</xml_url>
	</station>

	<station>
		<station_id>KLOR</station_id>
		<state>AL</state>
            	<station_name>Fort Rucker, Lowe Army Heliport</station_name>
		<latitude>31.35889</latitude>
		<longitude>-85.74833</longitude>
            	<html_url>https://w1.weather.gov/data/obhistory/KLOR.html</html_url>
            	<rss_url>https://weather.gov/xml/current_obs/KLOR.rss</rss_url>
            	<xml_url>https://weather.gov/xml/current_obs/KLOR.xml</xml_url>
	</station>

	<station>
		<station_id>KMDQ</station_id>
		<state>AL</state>
            	<station_name>Huntsville, Madison County Executive Airport</station_name>
		<latitude>34.86139</latitude>
		<longitude>-86.55722</longitude>
            	<html_url>https://w1.weather.gov/data/obhistory/KMDQ.html</html_url>
            	<rss_url>https://weather.gov/xml/current_obs/KMDQ.rss</rss_url>
            	<xml_url>https://weather.gov/xml/current_obs/KMDQ.xml</xml_url>
	</station>

	<station>
		<station_id>KMGM</station_id>
		<state>AL</state>
            	<station_name>Montgomery, Dannelly Field</station_name>
		<latitude>32.30028</latitude>
		<longitude>-86.40611</longitude>
            	<html_url>https://w1.weather.gov/data/obhistory/KMGM.html</html_url>
            	<rss_url>https://weather.gov/xml/current_obs/KMGM.rss</rss_url>
            	<xml_url>https://weather.gov/xml/current_obs/KMGM.xml</xml_url>
	</station>

	<station>
		<station_id>KMOB</station_id>
		<state>AL</state>
            	<station_name>Mobile, Mobile Regional Airport</station_name>
		<latitude>30.68833</latitude>
		<longitude>-88.24556</longitude>
            	<html_url>https://w1.weather.gov/data/obhistory/KMOB.html</html_url>
            	<rss_url>https://weather.gov/xml/current_obs/KMOB.rss</rss_url>
            	<xml_url>https://weather.gov/xml/current_obs/KMOB.xml</xml_url>
	</station>

	<station>
		<station_id>KMSL</station_id>
		<state>AL</state>
            	<station_name>Muscle Shoals, North West Alabama Regional Airport</station_name>
		<latitude>34.74389</latitude>
		<longitude>-87.59944</longitude>
            	<html_url>https://w1.weather.gov/data/obhistory/KMSL.html</html_url>
            	<rss_url>https://weather.gov/xml/current_obs/KMSL.rss</rss_url>
            	<xml_url>https://weather.gov/xml/current_obs/KMSL.xml</xml_url>
	</station>

	<station>
		<station_id>KMXF</station_id>
		<state>AL</state>
            	<station_name>Maxwell Air Force Base / Montgomery</station_name>
		<latitude>32.38333</latitude>
		<longitude>-86.36667</longitude>
            	<html_url>https://w1.weather.gov/data/obhistory/KMXF.html</html_url>
            	<rss_url>https://weather.gov/xml/current_obs/KMXF.rss</rss_url>
            	<xml_url>https://weather.gov/xml/current_obs/KMXF.xml</xml_url>
	</station>

	<station>
		<station_id>KOZR</station_id>
		<state>AL</state>
            	<station_name>Cairns Army Air Field / Ozark</station_name>
		<latitude>31.27672</latitude>
		<longitude>-85.71099</longitude>
            	<html_url>https://w1.weather.gov/data/obhistory/KOZR.html</html_url>
            	<rss_url>https://weather.gov/xml/current_obs/KOZR.rss</rss_url>
            	<xml_url>https://weather.gov/xml/current_obs/KOZR.xml</xml_url>
	</station>

	<station>
		<station_id>KTCL</station_id>
		<state>AL</state>
            	<station_name>Tuscaloosa Regional Airport</station_name>
		<latitude>33.21215</latitude>
		<longitude>-87.61554</longitude>
            	<html_url>https://w1.weather.gov/data/obhistory/KTCL.html</html_url>
            	<rss_url>https://weather.gov/xml/current_obs/KTCL.rss</rss_url>
            	<xml_url>https://weather.gov/xml/current_obs/KTCL.xml</xml_url>
	</station>

	<station>
		<station_id>KTOI</station_id>
		<state>AL</state>
            	<station_name>Troy, Troy Municipal Airport</station_name>
		<latitude>31.86056</latitude>
		<longitude>-86.01222</longitude>
            	<html_url>https://w1.weather.gov/data/obhistory/KTOI.html</html_url>
            	<rss_url>https://weather.gov/xml/current_obs/KTOI.rss</rss_url>
            	<xml_url>https://weather.gov/xml/current_obs/KTOI.xml</xml_url>
	</station>

	<station>
		<station_id>KCMD</station_id>
		<state>AL</state>
            	<station_name>Cullman Regional Folsom Field</station_name>
		<latitude>34.2687</latitude>
		<longitude>-86.858</longitude>
            	<html_url>https://w1.weather.gov/data/obhistory/KCMD.html</html_url>
            	<rss_url>https://weather.gov/xml/current_obs/KCMD.rss</rss_url>
            	<xml_url>https://weather.gov/xml/current_obs/KCMD.xml</xml_url>
	</station>

	<station>
		<station_id>K4A9</station_id>
		<state>AL</state>
            	<station_name>Fort Payne, Isbell Field Airport</station_name>
		<latitude>34.47361</latitude>
		<longitude>-85.72139</longitude>
            	<html_url>https://w1.weather.gov/data/obhistory/K4A9.html</html_url>
            	<rss_url>https://weather.gov/xml/current_obs/K4A9.rss</rss_url>
            	<xml_url>https://weather.gov/xml/current_obs/K4A9.xml</xml_url>
	</station>

	<station>
		<station_id>KALX</station_id>
		<state>AL</state>
            	<station_name>Alexander City, Thomas C Russell Field Airport</station_name>
		<latitude>32.91472</latitude>
		<longitude>-85.96278</longitude>
